[
  {
    "name": "TPS RW  01 Semper Barat",
    "wilayah": "Jakarta Utara",
    "kecamatan": "Cilincing",
    "kelurahan": "Semper Barat",
    "jenis_tps": "Tipe 4",
    "alamat": "Jl  Belibis IV",
    "latitude": -6.134835,
    "longitude": 106.928804,
    "risk_status": "Normal"
  },
  {
    "name": "TPS RW  03 Rorotan",
    "wilayah": "Jakarta Utara",
    "kecamatan": "Cilincing",
    "kelurahan": "Rorotan",
    "jenis_tps": "Tipe 1",
    "alamat": "Jl  Green Garden 3",
    "latitude": -6.147538,
    "longitude": 106.951807,
    "risk_status": "Normal"
  },
  {
    "name": "TPS RW  10 Rorotan",
    "wilayah": "Jakarta Utara",
    "kecamatan": "Cilincing",
    "kelurahan": "Rorotan",
    "jenis_tps": "Tipe 4",
    "alamat": "Jl  Rorotan III No 21",
    "latitude": -6.135256,
    "longitude": 106.954991,
    "risk_status": "Normal"
  },
  {
    "name": "TPS RW  07 RT  19 Rorotan",
    "wilayah": "Jakarta Utara",
    "kecamatan": "Cilincing",
    "kelurahan": "Rorotan",
    "jenis_tps": "Tipe 4",
    "alamat": "Jl  Rorotan IX Gg IV",
    "latitude": -6.155608,
    "longitude": 106.965366,
    "risk_status": "Normal"
  },
  {
    "name": "TPS RW  07 RT  01 Rorotan",
    "wilayah": "Jakarta Utara",
    "kecamatan": "Cilincing",
    "kelurahan": "Rorotan",
    "jenis_tps": "Tipe 4",
    "alamat": "Jl  Rorotan IX Gg 1",
    "latitude": -6.155608,
    "longitude": 106.965366,
    "risk_status": "Normal"
  },
  {
    "name": "TPS RW  07 Rorotan",
    "wilayah": "Jakarta Utara",
    "kecamatan": "Cilincing",
    "kelurahan": "Rorotan",
    "jenis_tps": "Tipe 4",
    "alamat": "Jl  Batas Rorotan No 12",
    "latitude": -6.155608,
    "longitude": 106.965366,
    "risk_status": "Normal"
  },
  {
    "name": "TPS RW  13 Rorotan",
    "wilayah": "Jakarta Utara",
    "kecamatan": "Cilincing",
    "kelurahan": "Rorotan",
    "jenis_tps": "Tipe 4",
    "alamat": "Jl  Sarang Bango No  3",
    "latitude": -6.135256,
    "longitude": 106.954991,
    "risk_status": "Normal"
  },
  {
    "name": "TPS RW  12 Rorotan",
    "wilayah": "Jakarta Utara",
    "kecamatan": "Cilincing",
    "kelurahan": "Rorotan",
    "jenis_tps": "Tipe 4",
    "alamat": "Jl  Rorotan Marunda 23 25",
    "latitude": -6.135256,
    "longitude": 106.954991,
    "risk_status": "Normal"
  },
  {
    "name": "TPS Pasar Lokbin",
    "wilayah": "Jakarta Utara",
    "kecamatan": "Cilincing",
    "kelurahan": "Rorotan",
    "jenis_tps": "Tipe 2",
    "alamat": "Jl  Malaka I No  42 RT  04 RW  05",
    "latitude": -6.140359,
    "longitude": 106.954229,
    "risk_status": "Normal"
  },
  {
    "name": "TPS RW 03 04",
    "wilayah": "Jakarta Timur",
    "kecamatan": "Pulogadung",
    "kelurahan": "Jati",
    "jenis_tps": "Tipe 4",
    "alamat": "Jl  Poncol",
    "latitude": -6.193032,
    "longitude": 106.901596,
    "risk_status": "Normal"
  },
  {
    "name": "TPS RW 05",
    "wilayah": "Jakarta Timur",
    "kecamatan": "Pulogadung",
    "kelurahan": "Jati",
    "jenis_tps": "Tipe 4",
    "alamat": "Jl  Bendungan Jati",
    "latitude": -6.19109956049,
    "longitude": 106.966771181,
    "risk_status": "Normal"
  },
  {
    "name": "TPS RW  004 Kel  Jatinegara Kaum",
    "wilayah": "Jakarta Timur",
    "kecamatan": "Pulogadung",
    "kelurahan": "Jatinegara Kaum",
    "jenis_tps": "Lintas",
    "alamat": "Jl  Remaja RT  08 RW  04",
    "latitude": -6.21070545561,
    "longitude": 106.9011572,
    "risk_status": "Normal"
  },
  {
    "name": "TPS RW  009 Rusun Jatinegara Kaum",
    "wilayah": "Jakarta Timur",
    "kecamatan": "Pulogadung",
    "kelurahan": "Jatinergara Kaum",
    "jenis_tps": "Tipe 4",
    "alamat": "Jl  Bekasi Timur Raya RW  01",
    "latitude": -6.2474,
    "longitude": 106.9007,
    "risk_status": "Normal"
  },
  {
    "name": "TPS RW  003 Taruna Pulogadung",
    "wilayah": "Jakarta Timur",
    "kecamatan": "Pulogadung",
    "kelurahan": "Pulogadung",
    "jenis_tps": "Tipe 4",
    "alamat": "Jl  Taruna",
    "latitude": -6.1911085,
    "longitude": 106.8906053,
    "risk_status": "Normal"
  },
  {
    "name": "TPS RW  008 Pulogadung",
    "wilayah": "Jakarta Timur",
    "kecamatan": "Pulogadung",
    "kelurahan": "Pulogadung",
    "jenis_tps": "Tipe 4",
    "alamat": "Jl  Pulo Nangka Timur",
    "latitude": -6.1911085,
    "longitude": 106.8906053,
    "risk_status": "Normal"
  },
  {
    "name": "TPS RW  009 Pulogadung",
    "wilayah": "Jakarta Timur",
    "kecamatan": "Pulogadung",
    "kelurahan": "Pulogadung",
    "jenis_tps": "Tipe 4",
    "alamat": "Jl Kayu Mas Utara",
    "latitude": -6.1911085,
    "longitude": 106.8906053,
    "risk_status": "Normal"
  },
  {
    "name": "TPS RW  001 Pulogadung",
    "wilayah": "Jakarta Timur",
    "kecamatan": "Pulogadung",
    "kelurahan": "Pulogadung",
    "jenis_tps": "Tipe 4",
    "alamat": "Jl  Kayu Mas Raya",
    "latitude": -6.1911085,
    "longitude": 106.8906053,
    "risk_status": "Normal"
  },
  {
    "name": "TPS RW  008",
    "wilayah": "Jakarta Timur",
    "kecamatan": "Pulogadung",
    "kelurahan": "Cipinang",
    "jenis_tps": "Tipe 4",
    "alamat": "Jl  Cipinang Lontar RW 008",
    "latitude": -6.2494274,
    "longitude": 106.87972089,
    "risk_status": "Normal"
  },
  {
    "name": "TPS RW  005 Brimob Cipinang",
    "wilayah": "Jakarta Timur",
    "kecamatan": "Pulogadung",
    "kelurahan": "Cipinang",
    "jenis_tps": "Tipe 4",
    "alamat": "Jl  Raya Bekasi Timur",
    "latitude": -6.207433,
    "longitude": 106.890578,
    "risk_status": "Normal"
  },
  {
    "name": "TPS RW  006 Musik Cipinang",
    "wilayah": "Jakarta Timur",
    "kecamatan": "Pulogadung",
    "kelurahan": "Cipinang",
    "jenis_tps": "Tipe 4",
    "alamat": "Jl  Cipinang Baru Raya RW  06",
    "latitude": -6.207433,
    "longitude": 106.890578,
    "risk_status": "Normal"
  },
  {
    "name": "TPS RW  16 Jagal",
    "wilayah": "Jakarta Timur",
    "kecamatan": "Pulogadung",
    "kelurahan": "Cipinang",
    "jenis_tps": "Tipe 4",
    "alamat": "Jl  Cipinang Jagal RW 016",
    "latitude": -6.211201,
    "longitude": 106.8957,
    "risk_status": "Normal"
  },
  {
    "name": "TPS RW  11",
    "wilayah": "Jakarta Timur",
    "kecamatan": "Pulogadung",
    "kelurahan": "Rawamangun",
    "jenis_tps": "Tipe 4",
    "alamat": "Jl  Wisma Jaya",
    "latitude": -6.28095747523,
    "longitude": 106.873525266,
    "risk_status": "Normal"
  },
  {
    "name": "TPS RW  12",
    "wilayah": "Jakarta Timur",
    "kecamatan": "Pulogadung",
    "kelurahan": "Rawamangun",
    "jenis_tps": "Tipe 4",
    "alamat": "Jl Rawamangun Muka Selatan",
    "latitude": -6.2602114013,
    "longitude": 106.865472845,
    "risk_status": "Normal"
  },
  {
    "name": "TPS RW  016",
    "wilayah": "Jakarta Timur",
    "kecamatan": "Pulogadung",
    "kelurahan": "Kayu Putih",
    "jenis_tps": "Tipe 4",
    "alamat": "Jl  Pulo Nangka Barat RT  03 RW 016",
    "latitude": -6.182381,
    "longitude": 106.904367,
    "risk_status": "Normal"
  },
  {
    "name": "Jl  Gandaria I  II  III  IV RW 02 Kel  Pekayon",
    "wilayah": "Jakarta Timur",
    "kecamatan": "Pasar Rebo",
    "kelurahan": "Pekayon",
    "jenis_tps": "Tipe 4",
    "alamat": "Jl  Gandaria RW 02 Pekayon",
    "latitude": -6.3432799,
    "longitude": 106.8646035,
    "risk_status": "Normal"
  },
  {
    "name": "Komplek Zeni Kel  Pekayon",
    "wilayah": "Jakarta Timur",
    "kecamatan": "Pasar Rebo",
    "kelurahan": "Pekayon",
    "jenis_tps": "Tipe 4",
    "alamat": "Jl  Raya Jakarta Bogor No 10A  RT 2 RW 8  Pekayon",
    "latitude": -6.3395042,
    "longitude": 106.867864,
    "risk_status": "Normal"
  },
  {
    "name": "Jl  Raya Bogor Ciba Kel  Pekayon",
    "wilayah": "Jakarta Timur",
    "kecamatan": "Pasar Rebo",
    "kelurahan": "Pekayon",
    "jenis_tps": "Tipe 4",
    "alamat": "Jl  Raya Bogor samping Hutsman Pekayon",
    "latitude": -6.3432799,
    "longitude": 106.8646035,
    "risk_status": "Normal"
  },
  {
    "name": "Kantor Camat Pasar Rebo",
    "wilayah": "Jakarta Timur",
    "kecamatan": "Pasar Rebo",
    "kelurahan": "Pekayon",
    "jenis_tps": "Tipe 3",
    "alamat": "Jl  Raya Bogor  RT 1 RW 4  Pekayon",
    "latitude": -6.340183,
    "longitude": 106.8696038,
    "risk_status": "Normal"
  },
  {
    "name": "Jl  Lapan Toledo Kel  Pekayon",
    "wilayah": "Jakarta Timur",
    "kecamatan": "Pasar Rebo",
    "kelurahan": "Pekayon",
    "jenis_tps": "Tipe 4",
    "alamat": "Jl  Lapan Toledo Pekayon",
    "latitude": -6.3432799,
    "longitude": 106.8646035,
    "risk_status": "Normal"
  },
  {
    "name": "Jl  Lapan depan RPTRA Kaca Piring Kel  Pekayon",
    "wilayah": "Jakarta Timur",
    "kecamatan": "Pasar Rebo",
    "kelurahan": "Pekayon",
    "jenis_tps": "Tipe 4",
    "alamat": "Jl  Lapan Rw 01 Pekayon",
    "latitude": -6.3432799,
    "longitude": 106.8646035,
    "risk_status": "Normal"
  },
  {
    "name": "Jl  Lapan III Kel  Pekayon",
    "wilayah": "Jakarta Timur",
    "kecamatan": "Pasar Rebo",
    "kelurahan": "Pekayon",
    "jenis_tps": "Tipe 4",
    "alamat": "Jl  Lapan III Pekayon",
    "latitude": -6.3432799,
    "longitude": 106.8646035,
    "risk_status": "Normal"
  },
  {
    "name": "Yonif 201 Kel  Pekayon",
    "wilayah": "Jakarta Timur",
    "kecamatan": "Pasar Rebo",
    "kelurahan": "Pekayon",
    "jenis_tps": "Tipe 4",
    "alamat": "Jl  Raya Bogor Jaya Yudha Rw 05 Pekayon",
    "latitude": -6.3432799,
    "longitude": 106.8646035,
    "risk_status": "Normal"
  },
  {
    "name": "Jl  H  Balok Kel  Pekayon",
    "wilayah": "Jakarta Timur",
    "kecamatan": "Pasar Rebo",
    "kelurahan": "Pekayon",
    "jenis_tps": "Tipe 4",
    "alamat": "Jl  H  Balok Pekayon",
    "latitude": -6.3432799,
    "longitude": 106.8646035,
    "risk_status": "Normal"
  },
  {
    "name": "Detta Marina Kel  Pekayon",
    "wilayah": "Jakarta Timur",
    "kecamatan": "Pasar Rebo",
    "kelurahan": "Pekayon",
    "jenis_tps": "Tipe 4",
    "alamat": "Jl  Raya Bogor KM 28 Pekayon",
    "latitude": -6.3432799,
    "longitude": 106.8646035,
    "risk_status": "Normal"
  },
  {
    "name": "Jl  Kopi Kel  Pekayon",
    "wilayah": "Jakarta Timur",
    "kecamatan": "Pasar Rebo",
    "kelurahan": "Pekayon",
    "jenis_tps": "Tipe 4",
    "alamat": "Jl  Kopi Rw 03 Pekayon",
    "latitude": -6.3432799,
    "longitude": 106.8646035,
    "risk_status": "Normal"
  },
  {
    "name": "POLSEK Pasar Rebo Kel  Pekayon",
    "wilayah": "Jakarta Timur",
    "kecamatan": "Pasar Rebo",
    "kelurahan": "Pekayon",
    "jenis_tps": "Tipe 4",
    "alamat": "Jl  Raya Jakarta Bogor KM 26 5  RT 4 RW 8  Pekayon",
    "latitude": -6.3432799,
    "longitude": 106.8646035,
    "risk_status": "Normal"
  },
  {
    "name": "Balai Diklat Industri Jakarta Kel  Pekayon",
    "wilayah": "Jakarta Timur",
    "kecamatan": "Pasar Rebo",
    "kelurahan": "Pekayon",
    "jenis_tps": "Tipe 3",
    "alamat": "Jl  Balai Kimia No 1 A  RW 9  Pekayon",
    "latitude": -6.345942,
    "longitude": 106.85921,
    "risk_status": "Normal"
  },
  {
    "name": "Jl  Sawit Kel  Kalisari",
    "wilayah": "Jakarta Timur",
    "kecamatan": "Pasar Rebo",
    "kelurahan": "Kalisari",
    "jenis_tps": "Tipe 4",
    "alamat": "Jl  Kalisari III Kel  Kalisari",
    "latitude": -6.3374806,
    "longitude": 106.8601883,
    "risk_status": "Normal"
  },
  {
    "name": "Jl  Puskesmas Kel  Kalisari",
    "wilayah": "Jakarta Timur",
    "kecamatan": "Pasar Rebo",
    "kelurahan": "Kalisari",
    "jenis_tps": "Tipe 4",
    "alamat": "Jl  Puskesmas Kalisari",
    "latitude": -6.3345458,
    "longitude": 106.8529356,
    "risk_status": "Normal"
  },
  {
    "name": "Jl  Manunggal Bhakti RW 11 Kel  Kalisari",
    "wilayah": "Jakarta Timur",
    "kecamatan": "Pasar Rebo",
    "kelurahan": "Kalisari",
    "jenis_tps": "Tipe 4",
    "alamat": "Jl  Manunggal Bkati RW 011 Kel  Kalisari",
    "latitude": -6.3345458,
    "longitude": 106.8529356,
    "risk_status": "Normal"
  },
  {
    "name": "GOR Kalisari Kel  Kalisari",
    "wilayah": "Jakarta Timur",
    "kecamatan": "Pasar Rebo",
    "kelurahan": "Kalisari",
    "jenis_tps": "Tipe 4",
    "alamat": "Jl  Kalisari III Kel  Kalisari",
    "latitude": -6.3345458,
    "longitude": 106.8529356,
    "risk_status": "Normal"
  },
  {
    "name": "Jl  Damai Kel  Kalisari",
    "wilayah": "Jakarta Timur",
    "kecamatan": "Pasar Rebo",
    "kelurahan": "Kalisari",
    "jenis_tps": "Tipe 4",
    "alamat": "Jl  Damai RW 001 Kerl  Kalisari",
    "latitude": -6.3374806,
    "longitude": 106.8601883,
    "risk_status": "Normal"
  },
  {
    "name": "Jl  Albarokah RW 09 Kel  Kalisari",
    "wilayah": "Jakarta Timur",
    "kecamatan": "Pasar Rebo",
    "kelurahan": "Kalisari",
    "jenis_tps": "Tipe 4",
    "alamat": "Jl  Lingkar Sari RW 009 Kel  Kalisari",
    "latitude": -6.3345458,
    "longitude": 106.8529356,
    "risk_status": "Normal"
  },
  {
    "name": "Jl  Caraka Buana Kel  Kalisari",
    "wilayah": "Jakarta Timur",
    "kecamatan": "Pasar Rebo",
    "kelurahan": "Kalisari",
    "jenis_tps": "Tipe 4",
    "alamat": "Jl  Caraka Buana RW 003 Kel  Kalisari",
    "latitude": -6.3345458,
    "longitude": 106.8529356,
    "risk_status": "Normal"
  },
  {
    "name": "Komplek Brigief Kel  Kalisari",
    "wilayah": "Jakarta Timur",
    "kecamatan": "Pasar Rebo",
    "kelurahan": "Kalisari",
    "jenis_tps": "Tipe 4",
    "alamat": "Komplek Brigif Kalisari",
    "latitude": -6.336388,
    "longitude": 106.86227,
    "risk_status": "Normal"
  },
  {
    "name": "Jl  Alfamart Kel  Kalisari",
    "wilayah": "Jakarta Timur",
    "kecamatan": "Pasar Rebo",
    "kelurahan": "Kalisari",
    "jenis_tps": "Tipe 4",
    "alamat": "Jl  Kalisari Raya Kel  Kalisari",
    "latitude": -6.3374806,
    "longitude": 106.8601883,
    "risk_status": "Normal"
  },
  {
    "name": "TPS Museum Satria Mandala",
    "wilayah": "Jakarta Selatan",
    "kecamatan": "Mampang Prapatan",
    "kelurahan": "Kuningan Barat",
    "jenis_tps": "Tipe 2",
    "alamat": "Jl  Gatot Subroto R 01 Kel Kuningan Barat",
    "latitude": -6.23147084563,
    "longitude": 106.819125568,
    "risk_status": "Normal"
  },
  {
    "name": "TPS LIPI",
    "wilayah": "Jakarta Selatan",
    "kecamatan": "Mampang Prapatan",
    "kelurahan": "Kuningan Barat",
    "jenis_tps": "Tipe 2",
    "alamat": "Jl  Gatot Subroto R 01 Kel Kuningan Barat",
    "latitude": -6.2364893,
    "longitude": 106.8218724,
    "risk_status": "Normal"
  },
  {
    "name": "TPS PLN Sigura gura",
    "wilayah": "Jakarta Selatan",
    "kecamatan": "Pancoran",
    "kelurahan": "Duren tiga",
    "jenis_tps": "Tipe 3",
    "alamat": "Jl  Duren Tiga PLN",
    "latitude": -6.2589379,
    "longitude": 106.8346663,
    "risk_status": "Normal"
  },
  {
    "name": "TPS ABN Pancoran",
    "wilayah": "Jakarta Selatan",
    "kecamatan": "Pancoran",
    "kelurahan": "Pancoran",
    "jenis_tps": "Tipe 2",
    "alamat": "Jl  Pancoran Timur 2A No  24",
    "latitude": -6.2532977,
    "longitude": 106.8449775,
    "risk_status": "Normal"
  },
  {
    "name": "TPS Transmigrasi",
    "wilayah": "Jakarta Selatan",
    "kecamatan": "Pancoran",
    "kelurahan": "Rawajati",
    "jenis_tps": "Tipe 3",
    "alamat": "Jl  Jati Luhur No  33 RT  6 RW  7 Rawajati Kec  Pancoran",
    "latitude": -6.2547981,
    "longitude": 106.8499248,
    "risk_status": "Normal"
  },
  {
    "name": "TPS BPK Pengadegan",
    "wilayah": "Jakarta Selatan",
    "kecamatan": "Pancoran",
    "kelurahan": "Pengadegan",
    "jenis_tps": "Tipe 3",
    "alamat": "Jl  Binawarga II Selatan RT  6 RW  7 Kalibata Pancoran",
    "latitude": -6.2551260399,
    "longitude": 106.85866511,
    "risk_status": "Normal"
  },
  {
    "name": "TPS Dinas Pariswisata BSF",
    "wilayah": "Jakarta Selatan",
    "kecamatan": "Pancoran",
    "kelurahan": "Cikoko",
    "jenis_tps": "Tipe 3",
    "alamat": "Jl  MT  Haryono",
    "latitude": -6.234661,
    "longitude": 106.822478,
    "risk_status": "Normal"
  },
  {
    "name": "TPS Rusun Pengadegan",
    "wilayah": "Jakarta Selatan",
    "kecamatan": "Pancoran",
    "kelurahan": "Pengadegan",
    "jenis_tps": "Tipe 3",
    "alamat": "Jl  Pengadegan Timur I RT  7 RW  1 Pengadegan  Kec  Pancoran",
    "latitude": -6.250683,
    "longitude": 106.861495,
    "risk_status": "Normal"
  },
  {
    "name": "TPS Catering Puspa",
    "wilayah": "Jakarta Selatan",
    "kecamatan": "Pancoran",
    "kelurahan": "Pancoran",
    "jenis_tps": "Tipe 2",
    "alamat": "Jl  Pancoran Timur",
    "latitude": -6.2532977,
    "longitude": 106.8449775,
    "risk_status": "Normal"
  },
  {
    "name": "TPS BPK Cikoko",
    "wilayah": "Jakarta Selatan",
    "kecamatan": "Pancoran",
    "kelurahan": "Cikoko",
    "jenis_tps": "Tipe 2",
    "alamat": "Jl  Letjen MT  Haryono  RT  4 RW  2 Cikoko  Kec  Pancoran",
    "latitude": -6.2434846,
    "longitude": 106.8570718,
    "risk_status": "Normal"
  },
  {
    "name": "TPS Pool Taksi Blue Bird",
    "wilayah": "Jakarta Selatan",
    "kecamatan": "Pancoran",
    "kelurahan": "Rawajati",
    "jenis_tps": "Tipe 3",
    "alamat": "Jl  Rawajati",
    "latitude": -6.2579301,
    "longitude": 106.8549816,
    "risk_status": "Normal"
  },
  {
    "name": "TPS LIA Pengadegan",
    "wilayah": "Jakarta Selatan",
    "kecamatan": "Pancoran",
    "kelurahan": "Pengadegan",
    "jenis_tps": "Tipe 3",
    "alamat": "Jl  Pengadegan Tmr Raya 3 Cikoko Pancoran RT  3 RW  7 Pengadegan Kec  Pancoran",
    "latitude": -6.2551260399,
    "longitude": 106.85866511,
    "risk_status": "Normal"
  },
  {
    "name": "TPS Mendagri",
    "wilayah": "Jakarta Selatan",
    "kecamatan": "Pancoran",
    "kelurahan": "Duren Tiga",
    "jenis_tps": "Tipe 3",
    "alamat": "Jl  Raya Kalibata No  8 RT  11 RW  7 Duren Tiga Kec  Pancoran",
    "latitude": -6.2556037,
    "longitude": 106.8542305,
    "risk_status": "Normal"
  },
  {
    "name": "TPS Buncit Indah",
    "wilayah": "Jakarta Selatan",
    "kecamatan": "Pasar Minggu",
    "kelurahan": "Pejaten Barat",
    "jenis_tps": "Tipe 2",
    "alamat": "Perumahan Buncit Indah",
    "latitude": -6.271074,
    "longitude": 106.83235,
    "risk_status": "Normal"
  },
  {
    "name": "TPS RW  003 H  Garie",
    "wilayah": "Jakarta Selatan",
    "kecamatan": "Pesanggrahan",
    "kelurahan": "Pesanggrahan",
    "jenis_tps": "Tipe 3",
    "alamat": "Jl  H  Garie",
    "latitude": -6.25305350342,
    "longitude": 106.760282959,
    "risk_status": "Normal"
  },
  {
    "name": "TPS PD  Pasar Pesanggrahan",
    "wilayah": "Jakarta Selatan",
    "kecamatan": "Pesanggrahan",
    "kelurahan": "Pesanggrahan",
    "jenis_tps": "Tipe 3",
    "alamat": "Jl  Pesanggrahan Raya",
    "latitude": -6.252104564,
    "longitude": 106.755889064,
    "risk_status": "Normal"
  },
  {
    "name": "TPS Pasar Lokbin Pesanggrahan",
    "wilayah": "Jakarta Selatan",
    "kecamatan": "Pesanggrahan",
    "kelurahan": "Pesanggrahan",
    "jenis_tps": "Tipe 2",
    "alamat": "Jl  Bintaro Permai",
    "latitude": -6.25639262,
    "longitude": 106.7614122,
    "risk_status": "Normal"
  },
  {
    "name": "TPS Jl Kesaradan  SMA 108  Pesanggrahan",
    "wilayah": "Jakarta Selatan",
    "kecamatan": "Pesanggrahan",
    "kelurahan": "Pesanggrahan",
    "jenis_tps": "Tipe 2",
    "alamat": "Jl  Kesadaran  SMA 108",
    "latitude": -6.2554579,
    "longitude": 106.763112,
    "risk_status": "Normal"
  },
  {
    "name": "TPS RW  004 IKPN",
    "wilayah": "Jakarta Selatan",
    "kecamatan": "Pesanggrahan",
    "kelurahan": "Bintaro",
    "jenis_tps": "Tipe 3",
    "alamat": "Komp  IKPN",
    "latitude": -6.2612927691,
    "longitude": 106.771278055,
    "risk_status": "Normal"
  },
  {
    "name": "TPS RW  010 Bintaro",
    "wilayah": "Jakarta Selatan",
    "kecamatan": "Pesanggrahan",
    "kelurahan": "Bintaro",
    "jenis_tps": "Tipe 3",
    "alamat": "Jl  Masjid Al Muflihun",
    "latitude": -6.25546301,
    "longitude": 106.7652643,
    "risk_status": "Normal"
  },
  {
    "name": "TPS Komp  Polri RW  006",
    "wilayah": "Jakarta Selatan",
    "kecamatan": "Pesanggrahan",
    "kelurahan": "Ulujami",
    "jenis_tps": "Tipe 3",
    "alamat": "Komplek POLRI",
    "latitude": -6.24912155,
    "longitude": 106.7619249,
    "risk_status": "Normal"
  },
  {
    "name": "TPS Ponpes Darunajah RW  004",
    "wilayah": "Jakarta Selatan",
    "kecamatan": "Pesanggrahan",
    "kelurahan": "Ulujami",
    "jenis_tps": "Tipe 2",
    "alamat": "Jl  Ulujami Raya",
    "latitude": -6.247399,
    "longitude": 106.760464,
    "risk_status": "Normal"
  },
  {
    "name": "TPS RW  004 Ulujami",
    "wilayah": "Jakarta Selatan",
    "kecamatan": "Pesanggrahan",
    "kelurahan": "Ulujami",
    "jenis_tps": "Tipe 4",
    "alamat": "Jl  Puskesmas Darul Najah",
    "latitude": -6.24460135,
    "longitude": 106.7616122,
    "risk_status": "Normal"
  },
  {
    "name": "TPS Pasar Alfa Petukangan Utara",
    "wilayah": "Jakarta Selatan",
    "kecamatan": "Pesanggrahan",
    "kelurahan": "Petukangan Utara",
    "jenis_tps": "Tipe 4",
    "alamat": "Jl  Taman Alfa Indah",
    "latitude": -6.226164,
    "longitude": 106.750726,
    "risk_status": "Normal"
  },
  {
    "name": "TPS PD Pasar Jaya Pasar Rumput",
    "wilayah": "Jakarta Selatan",
    "kecamatan": "Setiabudi",
    "kelurahan": "Pasar Manggis",
    "jenis_tps": "Tipe 2",
    "alamat": "Jl  Sultan Agung Kel  Menteng Atas",
    "latitude": -6.240256,
    "longitude": 106.811514,
    "risk_status": "Normal"
  },
  {
    "name": "TPS PD Pasar Jaya Pasar Mencos",
    "wilayah": "Jakarta Selatan",
    "kecamatan": "Setiabudi",
    "kelurahan": "Karet",
    "jenis_tps": "Tipe 2",
    "alamat": "Jl  Karet Belakang Barat No  2 RT  11 RW  02 Kel  Karet",
    "latitude": -6.240256,
    "longitude": 106.811514,
    "risk_status": "Normal"
  },
  {
    "name": "TPS PD Pasar Jaya Pasar Menteng Pulo",
    "wilayah": "Jakarta Selatan",
    "kecamatan": "Setiabudi",
    "kelurahan": "Menteng Atas",
    "jenis_tps": "Tipe 2",
    "alamat": "Jl  Menteng Pulo Raya RT  13 RW  08 Kel  Menteng Atas",
    "latitude": -6.331488,
    "longitude": 106.83321,
    "risk_status": "Normal"
  },
  {
    "name": "TPS PD Pasar Jaya Pasar Manggis",
    "wilayah": "Jakarta Selatan",
    "kecamatan": "Setiabudi",
    "kelurahan": "Pasar Manggis",
    "jenis_tps": "Tipe 2",
    "alamat": "Jl  Guntur RT  13 RW  05 Kel  Pasar Manggis",
    "latitude": -6.208396,
    "longitude": 106.837235,
    "risk_status": "Normal"
  },
  {
    "name": "TPS PD Pasar Jaya Pasar Karet Sawah",
    "wilayah": "Jakarta Selatan",
    "kecamatan": "Setiabudi",
    "kelurahan": "Karet Semanggi",
    "jenis_tps": "Tipe 2",
    "alamat": "Jl  Karet Belakang Barat RT  03 RW  03 Kel  Karet Kuningan",
    "latitude": -6.2229244,
    "longitude": 106.8182629,
    "risk_status": "Normal"
  },
  {
    "name": "TPS RW  04 Karet Semanggi",
    "wilayah": "Jakarta Selatan",
    "kecamatan": "Setiabudi",
    "kelurahan": "Karet Semanggi",
    "jenis_tps": "Tipe 2",
    "alamat": "Jl Karet Sawah RT  05 RW  04 Kel  Karet Semanggi",
    "latitude": -6.218523,
    "longitude": 106.819329,
    "risk_status": "Normal"
  },
  {
    "name": "TPS RW  04 Kuningan Timur",
    "wilayah": "Jakarta Selatan",
    "kecamatan": "Setiabudi",
    "kelurahan": "Kuningan Timur",
    "jenis_tps": "Tipe 2",
    "alamat": "Jl  Casablanca Pemakaman Menteng Pulo RW  04 Kel  Kuningan Timur",
    "latitude": -6.228189,
    "longitude": 106.833706,
    "risk_status": "Normal"
  },
  {
    "name": "TPS RW  12 bukit duri",
    "wilayah": "Jakarta Selatan",
    "kecamatan": "Tebet",
    "kelurahan": "Bukit Duri",
    "jenis_tps": "Tipe 1",
    "alamat": "Jl  Kampung Melayu Kecil",
    "latitude": -6.21785,
    "longitude": 106.854032,
    "risk_status": "Normal"
  },
  {
    "name": "TPS RW  01 Kebon Baru",
    "wilayah": "Jakarta Selatan",
    "kecamatan": "Tebet",
    "kelurahan": "Kebon Baru",
    "jenis_tps": "Tipe 4",
    "alamat": "RW  01 Kebon Baru",
    "latitude": -6.226678,
    "longitude": 106.864314,
    "risk_status": "Normal"
  },
  {
    "name": "TPS Pasar Tebet Timur",
    "wilayah": "Jakarta Selatan",
    "kecamatan": "Tebet",
    "kelurahan": "Tebet Timur",
    "jenis_tps": "Tipe 4",
    "alamat": "Jl  Tebet Timur Dalam Raya RT  005 RW  05",
    "latitude": -6.234533,
    "longitude": 106.856852,
    "risk_status": "Normal"
  },
  {
    "name": "TPS Pasar Tebet Barat",
    "wilayah": "Jakarta Selatan",
    "kecamatan": "Tebet",
    "kelurahan": "Tebet Barat",
    "jenis_tps": "Tipe 3",
    "alamat": "Jl  Tebet Barat Dalam Raya RT  002 RW  05",
    "latitude": -6.239677,
    "longitude": 106.848436,
    "risk_status": "Normal"
  },
  {
    "name": "TPS Perum Taman Modern",
    "wilayah": "Jakarta Timur",
    "kecamatan": "Cakung",
    "kelurahan": "Ujung Menteng",
    "jenis_tps": "Tipe 2",
    "alamat": "Perum Taman Modern",
    "latitude": -6.193419,
    "longitude": 106.954633,
    "risk_status": "Normal"
  },
  {
    "name": "TPS Dishub",
    "wilayah": "Jakarta Timur",
    "kecamatan": "Cakung",
    "kelurahan": "Ujung Menteng",
    "jenis_tps": "Tipe 2",
    "alamat": "Jl  Raya Bekasi",
    "latitude": -6.1834535,
    "longitude": 106.9648598,
    "risk_status": "Normal"
  },
  {
    "name": "TPS RW  04",
    "wilayah": "Jakarta Timur",
    "kecamatan": "Cakung",
    "kelurahan": "Cakung Barat",
    "jenis_tps": "Tipe 3",
    "alamat": "Jl  Cacing",
    "latitude": -6.27735,
    "longitude": 106.883305,
    "risk_status": "Normal"
  },
  {
    "name": "TPS RW  07",
    "wilayah": "Jakarta Timur",
    "kecamatan": "Cakung",
    "kelurahan": "Cakung Barat",
    "jenis_tps": "Tipe 4",
    "alamat": "Jl  Inspeksi Kalimalang",
    "latitude": -6.26142340788,
    "longitude": 106.860393787,
    "risk_status": "Normal"
  },
  {
    "name": "TPS RW  01 02 03",
    "wilayah": "Jakarta Timur",
    "kecamatan": "Cakung",
    "kelurahan": "Rawa Terate",
    "jenis_tps": "Tipe 3",
    "alamat": "Jl  Rawa Bali 1 RW  01",
    "latitude": -6.187123,
    "longitude": 106.912439,
    "risk_status": "Normal"
  },
  {
    "name": "TPS Rasamala",
    "wilayah": "Jakarta Timur",
    "kecamatan": "Cakung",
    "kelurahan": "Penggilingan",
    "jenis_tps": "Tipe 1",
    "alamat": "Jl  Rasamala",
    "latitude": -6.1937891,
    "longitude": 106.9413984,
    "risk_status": "Normal"
  },
  {
    "name": "TPS Rusun Pinus Blok C",
    "wilayah": "Jakarta Timur",
    "kecamatan": "Cakung",
    "kelurahan": "Penggilingan",
    "jenis_tps": "Tipe 2",
    "alamat": "Rusun Pinus Blok C",
    "latitude": -6.2050399,
    "longitude": 106.9358877,
    "risk_status": "Normal"
  },
  {
    "name": "TPS RW  18",
    "wilayah": "Jakarta Timur",
    "kecamatan": "Cakung",
    "kelurahan": "Penggilingan",
    "jenis_tps": "Tipe 1",
    "alamat": "Jl  Bulavar",
    "latitude": -6.200866,
    "longitude": 106.9386861,
    "risk_status": "Normal"
  },
  {
    "name": "TPS RW  02",
    "wilayah": "Jakarta Timur",
    "kecamatan": "Cakung",
    "kelurahan": "Cakung Timur",
    "jenis_tps": "Tipe 4",
    "alamat": "RW  02",
    "latitude": -6.25504449425,
    "longitude": 106.876381354,
    "risk_status": "Normal"
  },
  {
    "name": "TPS Perum JGC",
    "wilayah": "Jakarta Timur",
    "kecamatan": "Cakung",
    "kelurahan": "Cakung Timur",
    "jenis_tps": "Tipe 2",
    "alamat": "Perum JGC",
    "latitude": -6.1728853,
    "longitude": 106.956719,
    "risk_status": "Normal"
  },
  {
    "name": "TPS RW  06",
    "wilayah": "Jakarta Timur",
    "kecamatan": "Cakung",
    "kelurahan": "Cakung Timur",
    "jenis_tps": "Tipe 1",
    "alamat": "RW  06",
    "latitude": -6.31232507358,
    "longitude": 106.874901299,
    "risk_status": "Normal"
  },
  {
    "name": "TPS RW  11",
    "wilayah": "Jakarta Timur",
    "kecamatan": "Cakung",
    "kelurahan": "Cakung Timur",
    "jenis_tps": "Tipe 4",
    "alamat": "RW  11",
    "latitude": -6.28095747523,
    "longitude": 106.873525266,
    "risk_status": "Normal"
  },
  {
    "name": "TPS Pasar SS",
    "wilayah": "Jakarta Timur",
    "kecamatan": "Cakung",
    "kelurahan": "Jatinegara",
    "jenis_tps": "Tipe 2",
    "alamat": "Pasar SS",
    "latitude": -6.21242,
    "longitude": 106.875643,
    "risk_status": "Normal"
  },
  {
    "name": "TPS Pasar Pulojahe",
    "wilayah": "Jakarta Timur",
    "kecamatan": "Cakung",
    "kelurahan": "Jatinegara",
    "jenis_tps": "Tipe 3",
    "alamat": "Pasar Pulojahe",
    "latitude": -6.1947604,
    "longitude": 106.9225243,
    "risk_status": "Normal"
  },
  {
    "name": "TPS Rusun Pulojahe",
    "wilayah": "Jakarta Timur",
    "kecamatan": "Cakung",
    "kelurahan": "Jatinegara",
    "jenis_tps": "Tipe 4",
    "alamat": "Rusun Pulojahe",
    "latitude": -6.1991476,
    "longitude": 106.9253465,
    "risk_status": "Normal"
  },
  {
    "name": "TPS RW  06",
    "wilayah": "Jakarta Timur",
    "kecamatan": "Cakung",
    "kelurahan": "Jatinegara",
    "jenis_tps": "Tipe 1",
    "alamat": "RW  06",
    "latitude": -6.31232507358,
    "longitude": 106.874901299,
    "risk_status": "Normal"
  },
  {
    "name": "TPS Rusun Pulogebang",
    "wilayah": "Jakarta Timur",
    "kecamatan": "Cakung",
    "kelurahan": "Pulogebang",
    "jenis_tps": "Tipe 2",
    "alamat": "Rusun Pulogebang",
    "latitude": -6.201588,
    "longitude": 106.948903,
    "risk_status": "Normal"
  },
  {
    "name": "TPS Rusun Rawa Bebek",
    "wilayah": "Jakarta Timur",
    "kecamatan": "Cakung",
    "kelurahan": "Pulogebang",
    "jenis_tps": "Tipe 2",
    "alamat": "Rusun Rawa Bebek",
    "latitude": -6.199638,
    "longitude": 106.963852,
    "risk_status": "Normal"
  },
  {
    "name": "TPS Eramas 2000",
    "wilayah": "Jakarta Timur",
    "kecamatan": "Cakung",
    "kelurahan": "Pulogebang",
    "jenis_tps": "Tipe 2",
    "alamat": "Jl  Komplek eramas 2000",
    "latitude": -6.2117281,
    "longitude": 106.9512437,
    "risk_status": "Normal"
  },
  {
    "name": "BPOM",
    "wilayah": "Jakarta Timur",
    "kecamatan": "Cipayung",
    "kelurahan": "Cilangkap",
    "jenis_tps": "Tipe 3",
    "alamat": "Jl  Assyafiyah",
    "latitude": -6.33378,
    "longitude": 106.90288,
    "risk_status": "Normal"
  },
  {
    "name": "Komplek Binamarga",
    "wilayah": "Jakarta Timur",
    "kecamatan": "Cipayung",
    "kelurahan": "Cipayung",
    "jenis_tps": "Tipe 3",
    "alamat": "Komplek Binamarga RW  05",
    "latitude": -6.327037,
    "longitude": 106.890611,
    "risk_status": "Normal"
  },
  {
    "name": "TPS Perum Kopti",
    "wilayah": "Jakarta Timur",
    "kecamatan": "Cipayung",
    "kelurahan": "Setu",
    "jenis_tps": "Tipe 3",
    "alamat": "Komplek Kopti RT  03 RW  06",
    "latitude": -6.309115,
    "longitude": 106.920952,
    "risk_status": "Normal"
  },
  {
    "name": "TPS Pasar UKM Munjul",
    "wilayah": "Jakarta Timur",
    "kecamatan": "Cipayung",
    "kelurahan": "Munjul",
    "jenis_tps": "Tipe 3",
    "alamat": "Pasar Munjul",
    "latitude": -6.350931,
    "longitude": 106.892246,
    "risk_status": "Normal"
  },
  {
    "name": "TPS Rambo",
    "wilayah": "Jakarta Timur",
    "kecamatan": "Cipayung",
    "kelurahan": "Ceger",
    "jenis_tps": "Tipe 2",
    "alamat": "Jl  Rambo",
    "latitude": -6.306691,
    "longitude": 106.886745,
    "risk_status": "Normal"
  },
  {
    "name": "TPS RW  04",
    "wilayah": "Jakarta Timur",
    "kecamatan": "Cipayung",
    "kelurahan": "Pondok Ranggon",
    "jenis_tps": "Tipe 3",
    "alamat": "Jl  Tengki RW  04",
    "latitude": -6.27735,
    "longitude": 106.883305,
    "risk_status": "Normal"
  },
  {
    "name": "TPS Manunggal",
    "wilayah": "Jakarta Timur",
    "kecamatan": "Ciracas",
    "kelurahan": "Kelapa Dua Wetan",
    "jenis_tps": "Tipe 3",
    "alamat": "Jl  Manunggal",
    "latitude": -6.33286,
    "longitude": 106.879019,
    "risk_status": "Normal"
  },
  {
    "name": "TPS SMA 99",
    "wilayah": "Jakarta Timur",
    "kecamatan": "Ciracas",
    "kelurahan": "Cibubur",
    "jenis_tps": "Tipe 2",
    "alamat": "Jl  Bulak Ringin RW  03",
    "latitude": -6.332887,
    "longitude": 106.857666,
    "risk_status": "Normal"
  },
  {
    "name": "TPS Transito Komplek KODAM",
    "wilayah": "Jakarta Timur",
    "kecamatan": "Ciracas",
    "kelurahan": "Cibubur",
    "jenis_tps": "Tipe 3",
    "alamat": "Jl  Kapulaga 4 Blok E",
    "latitude": -6.32271,
    "longitude": 106.90558,
    "risk_status": "Normal"
  },
  {
    "name": "TPS Komplek DPRD",
    "wilayah": "Jakarta Timur",
    "kecamatan": "Ciracas",
    "kelurahan": "Cibubur",
    "jenis_tps": "Tipe 4",
    "alamat": "Jl  Kumis Kucing 2",
    "latitude": -6.334842,
    "longitude": 106.87137,
    "risk_status": "Normal"
  },
  {
    "name": "TPS RW  02",
    "wilayah": "Jakarta Timur",
    "kecamatan": "Ciracas",
    "kelurahan": "Susukan",
    "jenis_tps": "Tipe 4",
    "alamat": "Jl  Makmur Atas",
    "latitude": -6.25504449425,
    "longitude": 106.876381354,
    "risk_status": "Normal"
  },
  {
    "name": "TPS RW  02",
    "wilayah": "Jakarta Timur",
    "kecamatan": "Ciracas",
    "kelurahan": "Susukan",
    "jenis_tps": "Tipe 4",
    "alamat": "Jl  Makmur Bawah",
    "latitude": -6.25504449425,
    "longitude": 106.876381354,
    "risk_status": "Normal"
  },
  {
    "name": "TPS H  Ammar RW  08",
    "wilayah": "Jakarta Timur",
    "kecamatan": "Duren Sawit",
    "kelurahan": "Pondok Kelapa",
    "jenis_tps": "Tipe 2",
    "alamat": "Jl  H  Ammar RT  006 RW  008 Kel  Pondok Kelapa",
    "latitude": -6.2422972,
    "longitude": 106.9333134,
    "risk_status": "Normal"
  },
  {
    "name": "TPS RW  11",
    "wilayah": "Jakarta Timur",
    "kecamatan": "Duren Sawit",
    "kelurahan": "Pondok Kopi",
    "jenis_tps": "Tipe 4",
    "alamat": "Jl  BKT Ujung RW  11 Kel  Pondok Kopi",
    "latitude": -6.28095747523,
    "longitude": 106.873525266,
    "risk_status": "Normal"
  },
  {
    "name": "TPS RW  09",
    "wilayah": "Jakarta Timur",
    "kecamatan": "Duren Sawit",
    "kelurahan": "Pondok Kopi",
    "jenis_tps": "Tipe 4",
    "alamat": "Jl  I Gusti Ngurai Rai RW  09 Kel  Pondok Kopi",
    "latitude": -6.162956,
    "longitude": 106.933009,
    "risk_status": "Normal"
  },
  {
    "name": "TPS RW  05",
    "wilayah": "Jakarta Timur",
    "kecamatan": "Duren Sawit",
    "kelurahan": "Pondok Bambu",
    "jenis_tps": "Tipe 4",
    "alamat": "Jl  Komplek Bea Cukai RW  05 Kel  Pondok Bambu Kec  Duren Sawit",
    "latitude": -6.19109956049,
    "longitude": 106.966771181,
    "risk_status": "Normal"
  },
  {
    "name": "TPS LPS Cipinang Elok RW  10",
    "wilayah": "Jakarta Timur",
    "kecamatan": "Jatinegara",
    "kelurahan": "Cipinang Muara",
    "jenis_tps": "Tipe 1",
    "alamat": "Jl Cipinang Elok Blok Ag No  18",
    "latitude": -6.22424653911,
    "longitude": 106.885594986,
    "risk_status": "Normal"
  },
  {
    "name": "TPS Pasar Rawa Bening",
    "wilayah": "Jakarta Timur",
    "kecamatan": "Jatinegara",
    "kelurahan": "Rawabunga",
    "jenis_tps": "Tipe 3",
    "alamat": "Jl  Bekasi Barat",
    "latitude": -6.2161,
    "longitude": 106.869434,
    "risk_status": "Normal"
  },
  {
    "name": "TPS PT  Telkom",
    "wilayah": "Jakarta Timur",
    "kecamatan": "Jatinegara",
    "kelurahan": "Rawabunga",
    "jenis_tps": "Tipe 2",
    "alamat": "Jl  Mayjen DI Panjaitan",
    "latitude": -6.2474,
    "longitude": 106.9007,
    "risk_status": "Normal"
  },
  {
    "name": "TPS Pasar Regional Jatinegara",
    "wilayah": "Jakarta Timur",
    "kecamatan": "Jatinegara",
    "kelurahan": "Balimester",
    "jenis_tps": "Tipe 3",
    "alamat": "Jl  Jatinegara Barat RT  05 RW  03",
    "latitude": -6.216579,
    "longitude": 106.864527,
    "risk_status": "Normal"
  },
  {
    "name": "TPS RW  013 Cip  Muara",
    "wilayah": "Jakarta Timur",
    "kecamatan": "Jatinegara",
    "kelurahan": "Cipinang Muara",
    "jenis_tps": "Tipe 2",
    "alamat": "Jl  Cipinang Bali lll RT  05 013",
    "latitude": -6.23779843601,
    "longitude": 106.891385578,
    "risk_status": "Normal"
  },
  {
    "name": "TPS Rusun Bidara Cina",
    "wilayah": "Jakarta Timur",
    "kecamatan": "Jatinegara",
    "kelurahan": "Bidara Cina",
    "jenis_tps": "Tipe 3",
    "alamat": "Jl  Biduri Bulan",
    "latitude": -6.24354866735,
    "longitude": 106.86707399,
    "risk_status": "Normal"
  },
  {
    "name": "TPS LP Narkotik",
    "wilayah": "Jakarta Timur",
    "kecamatan": "Jatinegara",
    "kelurahan": "Cipinang Besar Utara",
    "jenis_tps": "Tipe 4",
    "alamat": "Jl  Bekasi Timur",
    "latitude": -6.215026,
    "longitude": 106.883281,
    "risk_status": "Normal"
  },
  {
    "name": "TPS Lapas Kelas I Cipinang",
    "wilayah": "Jakarta Timur",
    "kecamatan": "Jatinegara",
    "kelurahan": "Cipinang Besar Utara",
    "jenis_tps": "Tipe 3",
    "alamat": "Jl  Bekasi Timur",
    "latitude": -6.21593841483,
    "longitude": 106.885969065,
    "risk_status": "Normal"
  },
  {
    "name": "TPS RS  Pengayoman",
    "wilayah": "Jakarta Timur",
    "kecamatan": "Jatinegara",
    "kelurahan": "Cipinang Besar Utara",
    "jenis_tps": "Tipe 4",
    "alamat": "Jl  Bekasi Timur",
    "latitude": -6.216381,
    "longitude": 106.883462,
    "risk_status": "Normal"
  },
  {
    "name": "TPS RW  08",
    "wilayah": "Jakarta Timur",
    "kecamatan": "Jatinegara",
    "kelurahan": "Cipinang Cempedak",
    "jenis_tps": "Tipe 4",
    "alamat": "Jl  Kebon Nanas Selatan 1",
    "latitude": -6.215679,
    "longitude": 106.875806,
    "risk_status": "Normal"
  },
  {
    "name": "TPS RW  05 CBS",
    "wilayah": "Jakarta Timur",
    "kecamatan": "Jatinegara",
    "kelurahan": "Cipinang Besar Selatan",
    "jenis_tps": "Tipe 4",
    "alamat": "Jl  Panca Warga Satu RW  05",
    "latitude": -6.19109956049,
    "longitude": 106.966771181,
    "risk_status": "Normal"
  },
  {
    "name": "TPS Totogan",
    "wilayah": "Jakarta Timur",
    "kecamatan": "Jatinegara",
    "kelurahan": "Cipinang Cempedak",
    "jenis_tps": "Tipe 3",
    "alamat": "Jl  Cipinang Cempedak l",
    "latitude": -6.236584,
    "longitude": 106.87647,
    "risk_status": "Normal"
  },
  {
    "name": "TPS Container RW  01",
    "wilayah": "Jakarta Timur",
    "kecamatan": "Jatinegara",
    "kelurahan": "Cipinang Besar Utara",
    "jenis_tps": "Tipe 4",
    "alamat": "Jl  DI Panjaitan RW  01",
    "latitude": -6.182381,
    "longitude": 106.904367,
    "risk_status": "Normal"
  },
  {
    "name": "TPS Bahtera Wiraniaga Internusa",
    "wilayah": "Jakarta Timur",
    "kecamatan": "Jatinegara",
    "kelurahan": "Kampung Melayu",
    "jenis_tps": "Tipe 3",
    "alamat": "Jl  Jatinegara Barat Raya",
    "latitude": -6.2205667,
    "longitude": 106.8638541,
    "risk_status": "Normal"
  },
  {
    "name": "TPS Komplek Puskesad",
    "wilayah": "Jakarta Timur",
    "kecamatan": "Kramat Jati",
    "kelurahan": "Cililitan",
    "jenis_tps": "Tipe 2",
    "alamat": "Komplek Puskesad",
    "latitude": -6.2624687,
    "longitude": 106.86381,
    "risk_status": "Normal"
  },
  {
    "name": "TPS Pijar RT  12 RW  04",
    "wilayah": "Jakarta Timur",
    "kecamatan": "Kramat Jati",
    "kelurahan": "Dukuh",
    "jenis_tps": "Tipe 2",
    "alamat": "Jl  Pijar RT  12 RW  04",
    "latitude": -6.301388,
    "longitude": 106.882599,
    "risk_status": "Normal"
  },
  {
    "name": "TPS BHP RT  05 RW  06",
    "wilayah": "Jakarta Timur",
    "kecamatan": "Kramat Jati",
    "kelurahan": "Dukuh",
    "jenis_tps": "Tipe 2",
    "alamat": "Jl  BHP RT  05 RW  06",
    "latitude": -6.295813,
    "longitude": 106.875879,
    "risk_status": "Normal"
  },
  {
    "name": "TPS Dukuh 4 RT  05 RW  01",
    "wilayah": "Jakarta Timur",
    "kecamatan": "Kramat Jati",
    "kelurahan": "Dukuh",
    "jenis_tps": "Tipe 3",
    "alamat": "Jl  Dukuh 4 RT  05 RW  01",
    "latitude": -6.28662410431,
    "longitude": 106.87696235,
    "risk_status": "Normal"
  },
  {
    "name": "TPS H  Mudenia RT  06 RW  09",
    "wilayah": "Jakarta Timur",
    "kecamatan": "Kramat Jati",
    "kelurahan": "Kramat Jati",
    "jenis_tps": "Tipe 2",
    "alamat": "Jl  H  Mudenia RT  06 RW  09",
    "latitude": -6.2749122,
    "longitude": 106.8624912,
    "risk_status": "Normal"
  },
  {
    "name": "TPS Al Amin RW  06",
    "wilayah": "Jakarta Timur",
    "kecamatan": "Kramat Jati",
    "kelurahan": "Kramat Jati",
    "jenis_tps": "Tipe 2",
    "alamat": "Jl  Al Amin",
    "latitude": -6.2749122,
    "longitude": 106.8624912,
    "risk_status": "Normal"
  },
  {
    "name": "TPS Komplek Paspampres",
    "wilayah": "Jakarta Timur",
    "kecamatan": "Kramat Jati",
    "kelurahan": "Tengah",
    "jenis_tps": "Tipe 2",
    "alamat": "Komplek Paspampres",
    "latitude": -6.2906344,
    "longitude": 106.8676519,
    "risk_status": "Normal"
  },
  {
    "name": "TPS Karya",
    "wilayah": "Jakarta Timur",
    "kecamatan": "Kramat Jati",
    "kelurahan": "Tengah",
    "jenis_tps": "Tipe 4",
    "alamat": "Jl  Karya",
    "latitude": -6.2920980706,
    "longitude": 106.871651858,
    "risk_status": "Normal"
  },
  {
    "name": "TPS RW  09",
    "wilayah": "Jakarta Timur",
    "kecamatan": "Makasar",
    "kelurahan": "Cipinang Melayu",
    "jenis_tps": "Tipe 4",
    "alamat": "Jl  Pangkalan Jati VII",
    "latitude": -6.162956,
    "longitude": 106.933009,
    "risk_status": "Normal"
  },
  {
    "name": "TPS RW  04 Borobudur",
    "wilayah": "Jakarta Timur",
    "kecamatan": "Makasar",
    "kelurahan": "Cipinang Melayu",
    "jenis_tps": "Tipe 3",
    "alamat": "Jl  Pangeran",
    "latitude": -6.2424395861,
    "longitude": 106.896759573,
    "risk_status": "Normal"
  },
  {
    "name": "TPS RW  03",
    "wilayah": "Jakarta Timur",
    "kecamatan": "Makasar",
    "kelurahan": "Cipinang Melayu",
    "jenis_tps": "Tipe 2",
    "alamat": "Jl  Al Muqorobin",
    "latitude": -6.26447073742,
    "longitude": 106.872142163,
    "risk_status": "Normal"
  },
  {
    "name": "TPS RW  12 Rajawali",
    "wilayah": "Jakarta Timur",
    "kecamatan": "Makasar",
    "kelurahan": "Halim Perdana Kusuma",
    "jenis_tps": "Tipe 3",
    "alamat": "Jl  Siaga 4",
    "latitude": -6.253254,
    "longitude": 106.892646,
    "risk_status": "Normal"
  },
  {
    "name": "TPS RW  010 Halim PK  RSAU",
    "wilayah": "Jakarta Timur",
    "kecamatan": "Makasar",
    "kelurahan": "Halim Perdana Kusuma",
    "jenis_tps": "Tipe 2",
    "alamat": "Jl  Jatayu",
    "latitude": -6.288966,
    "longitude": 106.89576,
    "risk_status": "Normal"
  },
  {
    "name": "TPS RW  009 Halim PK  STTD",
    "wilayah": "Jakarta Timur",
    "kecamatan": "Makasar",
    "kelurahan": "Halim Perdana Kusuma",
    "jenis_tps": "Tipe 2",
    "alamat": "Jl  Raya Halim",
    "latitude": -6.2655682,
    "longitude": 106.8936385,
    "risk_status": "Normal"
  },
  {
    "name": "TPS RW  04",
    "wilayah": "Jakarta Timur",
    "kecamatan": "Makasar",
    "kelurahan": "Halim Perdana Kusuma",
    "jenis_tps": "Tipe 3",
    "alamat": "Jl  Squadron",
    "latitude": -6.27735,
    "longitude": 106.883305,
    "risk_status": "Normal"
  },
  {
    "name": "TPS RW  003  Gedung Garda",
    "wilayah": "Jakarta Timur",
    "kecamatan": "Makasar",
    "kelurahan": "Halim Perdana Kusuma",
    "jenis_tps": "Tipe 3",
    "alamat": "Jl  Raya Pondok Gede",
    "latitude": -6.284144,
    "longitude": 106.905367,
    "risk_status": "Normal"
  },
  {
    "name": "TPS RW  002 Halim PK  LAKESGILUT",
    "wilayah": "Jakarta Timur",
    "kecamatan": "Makasar",
    "kelurahan": "Halim Perdana Kusuma",
    "jenis_tps": "Tipe 2",
    "alamat": "Jl  Raya Pondok Gede RT  9 RW  1",
    "latitude": -6.2655682,
    "longitude": 106.8936385,
    "risk_status": "Normal"
  },
  {
    "name": "TPS RW  06  Lahan Yongki",
    "wilayah": "Jakarta Timur",
    "kecamatan": "Makasar",
    "kelurahan": "Kebon Pala",
    "jenis_tps": "Tipe 3",
    "alamat": "Jl  DI Panjaitan",
    "latitude": -6.249592,
    "longitude": 106.879809,
    "risk_status": "Normal"
  },
  {
    "name": "TPS RW  06 Kebon Pala  Hotel 678",
    "wilayah": "Jakarta Timur",
    "kecamatan": "Makasar",
    "kelurahan": "Kebon Pala",
    "jenis_tps": "Tipe 2",
    "alamat": "Jl  Mayjend Sutoyo",
    "latitude": -6.2556447,
    "longitude": 106.8775074,
    "risk_status": "Normal"
  },
  {
    "name": "TPS RW  05",
    "wilayah": "Jakarta Timur",
    "kecamatan": "Makasar",
    "kelurahan": "Pinang Ranti",
    "jenis_tps": "Tipe 4",
    "alamat": "Jl  Al Falah",
    "latitude": -6.19109956049,
    "longitude": 106.966771181,
    "risk_status": "Normal"
  },
  {
    "name": "TPS RW  04",
    "wilayah": "Jakarta Timur",
    "kecamatan": "Makasar",
    "kelurahan": "Pinang Ranti",
    "jenis_tps": "Tipe 3",
    "alamat": "Gg  Melati",
    "latitude": -6.27735,
    "longitude": 106.883305,
    "risk_status": "Normal"
  },
  {
    "name": "TPS RW  01",
    "wilayah": "Jakarta Timur",
    "kecamatan": "Makasar",
    "kelurahan": "Pinang Ranti",
    "jenis_tps": "Tipe 4",
    "alamat": "Jl  Pinang Ranti Barat",
    "latitude": -6.182381,
    "longitude": 106.904367,
    "risk_status": "Normal"
  },
  {
    "name": "TPS RW  02 Gedung Pewayangan",
    "wilayah": "Jakarta Timur",
    "kecamatan": "Makasar",
    "kelurahan": "Pinang Ranti",
    "jenis_tps": "Tipe 2",
    "alamat": "Jl  Pintu I TMII",
    "latitude": -6.2884275,
    "longitude": 106.8833312,
    "risk_status": "Normal"
  },
  {
    "name": "TPS RW  03 Padepokan Pencak Silat",
    "wilayah": "Jakarta Timur",
    "kecamatan": "Makasar",
    "kelurahan": "Pinang Ranti",
    "jenis_tps": "Tipe 3",
    "alamat": "Jl  Raya TMII",
    "latitude": -6.295263,
    "longitude": 106.884129,
    "risk_status": "Normal"
  },
  {
    "name": "TPS RW  03 Masjid At Tin",
    "wilayah": "Jakarta Timur",
    "kecamatan": "Makasar",
    "kelurahan": "Pinang Ranti",
    "jenis_tps": "Tipe 2",
    "alamat": "Jl  Raya TMII",
    "latitude": -6.2884275,
    "longitude": 106.8833312,
    "risk_status": "Normal"
  },
  {
    "name": "TPS RW  08",
    "wilayah": "Jakarta Timur",
    "kecamatan": "Matraman",
    "kelurahan": "Palmeriam",
    "jenis_tps": "Tipe 4",
    "alamat": "Jl  Kayu Manis Lama I RW  08",
    "latitude": -6.215679,
    "longitude": 106.875806,
    "risk_status": "Normal"
  },
  {
    "name": "TPS RW  10",
    "wilayah": "Jakarta Timur",
    "kecamatan": "Matraman",
    "kelurahan": "Palmeriam",
    "jenis_tps": "Tipe 4",
    "alamat": "Jl  Pramuka RW  10",
    "latitude": -6.186484,
    "longitude": 106.89837,
    "risk_status": "Normal"
  },
  {
    "name": "Yonkav Atas Barak Kel  Baru",
    "wilayah": "Jakarta Timur",
    "kecamatan": "Pasar Rebo",
    "kelurahan": "Baru",
    "jenis_tps": "Tipe 2",
    "alamat": "Jl  Yonkav Rt 001 Rw 006 Kel  Baru",
    "latitude": -6.3235068,
    "longitude": 106.8469824,
    "risk_status": "Normal"
  },
  {
    "name": "Komplek Bekangdam Jaya Kel  Baru",
    "wilayah": "Jakarta Timur",
    "kecamatan": "Pasar Rebo",
    "kelurahan": "Baru",
    "jenis_tps": "Tipe 2",
    "alamat": "Jl  Ra  Fadillah Rt 003 Rw 006 Kel  Baru",
    "latitude": -6.3235068,
    "longitude": 106.8469824,
    "risk_status": "Normal"
  },
  {
    "name": "Komplek Denzipur Kel  Cijantung",
    "wilayah": "Jakarta Timur",
    "kecamatan": "Pasar Rebo",
    "kelurahan": "Cijantung",
    "jenis_tps": "Tipe 2",
    "alamat": "Jl  Pendidikan II RT 06 RW 04",
    "latitude": -6.3162424,
    "longitude": 106.8595986,
    "risk_status": "Normal"
  },
  {
    "name": "Jl  Selayar Kel  Cijantung",
    "wilayah": "Jakarta Timur",
    "kecamatan": "Pasar Rebo",
    "kelurahan": "Cijantung",
    "jenis_tps": "Tipe 2",
    "alamat": "Jl  Selayar Rw 04",
    "latitude": -6.3149846,
    "longitude": 106.86009,
    "risk_status": "Normal"
  },
  {
    "name": "Yayasan Sudirman Kel  Cijantung",
    "wilayah": "Jakarta Timur",
    "kecamatan": "Pasar Rebo",
    "kelurahan": "Cijantung",
    "jenis_tps": "Tipe 2",
    "alamat": "Jl  Pendidikan III RT 03 RW 04",
    "latitude": -6.3212053,
    "longitude": 106.8587894,
    "risk_status": "Normal"
  },
  {
    "name": "Jl  Lebak Sari Kel  Cijantung",
    "wilayah": "Jakarta Timur",
    "kecamatan": "Pasar Rebo",
    "kelurahan": "Cijantung",
    "jenis_tps": "Tipe 2",
    "alamat": "Jl  Lebak Sari Rw 05",
    "latitude": -6.3212053,
    "longitude": 106.8587894,
    "risk_status": "Normal"
  },
  {
    "name": "MTS Negeri 33 Kel  Cijantung",
    "wilayah": "Jakarta Timur",
    "kecamatan": "Pasar Rebo",
    "kelurahan": "Cijantung",
    "jenis_tps": "Tipe 2",
    "alamat": "Jl  Pertengahan Rt 01 Rw 03",
    "latitude": -6.3212053,
    "longitude": 106.8587894,
    "risk_status": "Normal"
  },
  {
    "name": "TPS Pariwisata",
    "wilayah": "Jakarta Selatan",
    "kecamatan": "Mampang Prapatan",
    "kelurahan": "Kuningan Barat",
    "jenis_tps": "Tipe 3",
    "alamat": "Jl  Abd  Rohim RW  01 Kel  Kuningan Barat",
    "latitude": -6.234661,
    "longitude": 106.822478,
    "risk_status": "Normal"
  },
  {
    "name": "TPS RW  01 Cilincing",
    "wilayah": "Jakarta Utara",
    "kecamatan": "Cilincing",
    "kelurahan": "Cilincing",
    "jenis_tps": "Tipe 4",
    "alamat": "Jl  Cilincing Baru 1",
    "latitude": -6.1289529,
    "longitude": 106.9461038,
    "risk_status": "Normal"
  },
  {
    "name": "TPS RW  08 Cilincing",
    "wilayah": "Jakarta Utara",
    "kecamatan": "Cilincing",
    "kelurahan": "Cilincing",
    "jenis_tps": "Tipe 3",
    "alamat": "Pasar Pagi RW  08",
    "latitude": -6.1038,
    "longitude": 106.9364,
    "risk_status": "Normal"
  },
  {
    "name": "TPS RW  07 Cilincing",
    "wilayah": "Jakarta Utara",
    "kecamatan": "Cilincing",
    "kelurahan": "Cilincing",
    "jenis_tps": "Tipe 4",
    "alamat": "Komp Brimob",
    "latitude": -6.1289529,
    "longitude": 106.9461038,
    "risk_status": "Normal"
  },
  {
    "name": "TPS Bulak Cabe RW  09 Cilincing",
    "wilayah": "Jakarta Utara",
    "kecamatan": "Cilincing",
    "kelurahan": "Cilincing",
    "jenis_tps": "Tipe 2",
    "alamat": "Jl  Cakung Drain RW  09",
    "latitude": -6.144314,
    "longitude": 106.919746,
    "risk_status": "Normal"
  },
  {
    "name": "TPS Al Alam RT 05 RW  04 Cilincing",
    "wilayah": "Jakarta Utara",
    "kecamatan": "Cilincing",
    "kelurahan": "Cilincing",
    "jenis_tps": "Tipe 1",
    "alamat": "Jl  Rekreasi Cilincing RT  05 RW  04",
    "latitude": -6.09962081258,
    "longitude": 106.938809294,
    "risk_status": "Normal"
  },
  {
    "name": "TPS Rawa Malang RT  09 RW  09 Cilincing",
    "wilayah": "Jakarta Utara",
    "kecamatan": "Cilincing",
    "kelurahan": "Cilincing",
    "jenis_tps": "Tipe 2",
    "alamat": "Jl  Cakung Drain RT  09 RW  09",
    "latitude": -6.144314,
    "longitude": 106.919746,
    "risk_status": "Normal"
  },
  {
    "name": "TPS RT  13 RW 09 Cilincing",
    "wilayah": "Jakarta Utara",
    "kecamatan": "Cilincing",
    "kelurahan": "Cilincing",
    "jenis_tps": "Tipe 2",
    "alamat": "Jl  Komp Pelindo RT  13 RW  09",
    "latitude": -6.144314,
    "longitude": 106.919746,
    "risk_status": "Normal"
  },
  {
    "name": "TPS RW  10 Rusun Cilincing",
    "wilayah": "Jakarta Utara",
    "kecamatan": "Cilincing",
    "kelurahan": "Cilincing",
    "jenis_tps": "Tipe 4",
    "alamat": "Jl  Cakung Drain RW  10",
    "latitude": -6.1289529,
    "longitude": 106.9461038,
    "risk_status": "Normal"
  },
  {
    "name": "TPS Kali Banglio bak 3 RT  16 RW  03 Cilincing",
    "wilayah": "Jakarta Utara",
    "kecamatan": "Cilincing",
    "kelurahan": "Cilincing",
    "jenis_tps": "Tipe 2",
    "alamat": "Jl  Kali Banglio RT  16 RW  03",
    "latitude": -6.10057371299,
    "longitude": 106.934381328,
    "risk_status": "Normal"
  },
  {
    "name": "TPS Kali Banglio bak 2 RT  11 Cilincing",
    "wilayah": "Jakarta Utara",
    "kecamatan": "Cilincing",
    "kelurahan": "Cilincing",
    "jenis_tps": "Tipe 2",
    "alamat": "Jl  Kali Banglio RT  11",
    "latitude": -6.10057371299,
    "longitude": 106.934381328,
    "risk_status": "Normal"
  },
  {
    "name": "TPS Kali Banglio bak 1 RT  09",
    "wilayah": "Jakarta Utara",
    "kecamatan": "Cilincing",
    "kelurahan": "Cilincing",
    "jenis_tps": "Tipe 4",
    "alamat": "Jl  Kali Banglio RT  09",
    "latitude": -6.10011642516,
    "longitude": 106.935066311,
    "risk_status": "Normal"
  },
  {
    "name": "TPS Kali Banglio RT  08 Cilincing",
    "wilayah": "Jakarta Utara",
    "kecamatan": "Cilincing",
    "kelurahan": "Cilincing",
    "jenis_tps": "Tipe 2",
    "alamat": "Jl  Kali Banglio RT  08",
    "latitude": -6.10057371299,
    "longitude": 106.934381328,
    "risk_status": "Normal"
  },
  {
    "name": "TPS TPI RW  04 Cilincing",
    "wilayah": "Jakarta Utara",
    "kecamatan": "Cilincing",
    "kelurahan": "Cilincing",
    "jenis_tps": "Tipe 4",
    "alamat": "Jl  Cakung Drain TPI Kel Cilincing",
    "latitude": -6.1289529,
    "longitude": 106.9461038,
    "risk_status": "Normal"
  },
  {
    "name": "TPS RW  01 Dempet Marunda",
    "wilayah": "Jakarta Utara",
    "kecamatan": "Cilincing",
    "kelurahan": "Marunda",
    "jenis_tps": "Tipe 4",
    "alamat": "Jl  H  Dempet",
    "latitude": -6.1231575,
    "longitude": 106.9601716,
    "risk_status": "Normal"
  },
  {
    "name": "TPS KEPU",
    "wilayah": "Jakarta Utara",
    "kecamatan": "Cilincing",
    "kelurahan": "Marunda",
    "jenis_tps": "Tipe 4",
    "alamat": "Jl  Kp  Marunda Kepu",
    "latitude": -6.098037,
    "longitude": 106.969416,
    "risk_status": "Normal"
  },
  {
    "name": "TPS RW  03 Cabang 4 Marunda",
    "wilayah": "Jakarta Utara",
    "kecamatan": "Cilincing",
    "kelurahan": "Marunda",
    "jenis_tps": "Tipe 2",
    "alamat": "Jl  Marunda Baru 4",
    "latitude": -6.121308,
    "longitude": 106.960298,
    "risk_status": "Normal"
  },
  {
    "name": "TPS RW  01 Marunda",
    "wilayah": "Jakarta Utara",
    "kecamatan": "Cilincing",
    "kelurahan": "Marunda",
    "jenis_tps": "Tipe 2",
    "alamat": "Jl  Raya Bidara",
    "latitude": -6.10796745405,
    "longitude": 106.929159558,
    "risk_status": "Normal"
  },
  {
    "name": "TPS RW  11 Marunda",
    "wilayah": "Jakarta Utara",
    "kecamatan": "Cilincing",
    "kelurahan": "Marunda",
    "jenis_tps": "Tipe 4",
    "alamat": "Rusun Marunda Cluster B",
    "latitude": -6.1231575,
    "longitude": 106.9601716,
    "risk_status": "Normal"
  },
  {
    "name": "TPS RW  10 Marunda",
    "wilayah": "Jakarta Utara",
    "kecamatan": "Cilincing",
    "kelurahan": "Marunda",
    "jenis_tps": "Tipe 2",
    "alamat": "Rusun Marunda Cluster A",
    "latitude": -6.10796745405,
    "longitude": 106.929159558,
    "risk_status": "Normal"
  },
  {
    "name": "TPS PD Pasar Jaya Kalibaru",
    "wilayah": "Jakarta Utara",
    "kecamatan": "Cilincing",
    "kelurahan": "Kalibaru",
    "jenis_tps": "Tipe 4",
    "alamat": "Jl Kalibaru Timur RW  02",
    "latitude": -6.102233,
    "longitude": 106.927801,
    "risk_status": "Normal"
  },
  {
    "name": "TPS RW  02 Kalibaru",
    "wilayah": "Jakarta Utara",
    "kecamatan": "Cilincing",
    "kelurahan": "Kalibaru",
    "jenis_tps": "Tipe 1",
    "alamat": "Jl  Kalibaru Timur",
    "latitude": -6.104395,
    "longitude": 106.918756,
    "risk_status": "Normal"
  },
  {
    "name": "TPS RW  08 Kalibaru",
    "wilayah": "Jakarta Utara",
    "kecamatan": "Cilincing",
    "kelurahan": "Kalibaru",
    "jenis_tps": "Tipe 1",
    "alamat": "Jl  Kalibaru Barat",
    "latitude": -6.104395,
    "longitude": 106.918756,
    "risk_status": "Normal"
  },
  {
    "name": "TPS RW  002 Kalibaru",
    "wilayah": "Jakarta Utara",
    "kecamatan": "Cilincing",
    "kelurahan": "Kalibaru",
    "jenis_tps": "Tipe 1",
    "alamat": "Jl  Kosambi 1 RT 13 RW  02",
    "latitude": -6.104395,
    "longitude": 106.918756,
    "risk_status": "Normal"
  },
  {
    "name": "TPS RW  014 Kalibaru",
    "wilayah": "Jakarta Utara",
    "kecamatan": "Cilincing",
    "kelurahan": "Kalibaru",
    "jenis_tps": "Tipe 1",
    "alamat": "Jl  Kali Baru Timur",
    "latitude": -6.104395,
    "longitude": 106.918756,
    "risk_status": "Normal"
  },
  {
    "name": "TPS RW  013 Kalibaru",
    "wilayah": "Jakarta Utara",
    "kecamatan": "Cilincing",
    "kelurahan": "Kalibaru",
    "jenis_tps": "Tipe 1",
    "alamat": "Jl  Kalibaru Timur RT  13 RW  13",
    "latitude": -6.104395,
    "longitude": 106.918756,
    "risk_status": "Normal"
  },
  {
    "name": "TPS RW  01 Kalibanglio Kali Baru",
    "wilayah": "Jakarta Utara",
    "kecamatan": "Cilincing",
    "kelurahan": "Kalibaru",
    "jenis_tps": "Tipe 4",
    "alamat": "Jl  Kali Banglio RT  02 01 Kel  Kalibaru",
    "latitude": -6.105,
    "longitude": 106.927,
    "risk_status": "Normal"
  },
  {
    "name": "TPS Gaya Motor RW  08 Semper Timur",
    "wilayah": "Jakarta Utara",
    "kecamatan": "Cilincing",
    "kelurahan": "Semper Timur",
    "jenis_tps": "Tipe 3",
    "alamat": "Komp  Gaya Motor RW  08",
    "latitude": -6.111579,
    "longitude": 106.927423,
    "risk_status": "Normal"
  },
  {
    "name": "TPS RW  02 Semper Timur",
    "wilayah": "Jakarta Utara",
    "kecamatan": "Cilincing",
    "kelurahan": "Semper Timur",
    "jenis_tps": "Tipe 3",
    "alamat": "Jl  Cakung Cilincing RT  03 RW  02",
    "latitude": -6.111579,
    "longitude": 106.927423,
    "risk_status": "Normal"
  },
  {
    "name": "TPS RW  11 Cakung Drain Semper Timur",
    "wilayah": "Jakarta Utara",
    "kecamatan": "Cilincing",
    "kelurahan": "Semper Timur",
    "jenis_tps": "Tipe 3",
    "alamat": "Jl  Swadaya I RT  01 RW  11",
    "latitude": -6.13500033092,
    "longitude": 106.940569986,
    "risk_status": "Normal"
  },
  {
    "name": "TPS RW  10 Cakung Drain Semper Timur",
    "wilayah": "Jakarta Utara",
    "kecamatan": "Cilincing",
    "kelurahan": "Semper Timur",
    "jenis_tps": "Tipe 2",
    "alamat": "Jl  Inspeksi Cakung Drain RT  06 RW  10",
    "latitude": -6.11790610737,
    "longitude": 106.934513304,
    "risk_status": "Normal"
  },
  {
    "name": "TPS Jembatan Budidharma Semper Timur",
    "wilayah": "Jakarta Utara",
    "kecamatan": "Cilincing",
    "kelurahan": "Semper Timur",
    "jenis_tps": "Tipe 4",
    "alamat": "Jl  TPU Semper RT 04 RW 10",
    "latitude": -6.120498,
    "longitude": 106.93161,
    "risk_status": "Normal"
  },
  {
    "name": "TPS RW  03 Budidarma Semper Timur",
    "wilayah": "Jakarta Utara",
    "kecamatan": "Cilincing",
    "kelurahan": "Semper Timur",
    "jenis_tps": "Tipe 3",
    "alamat": "Jl  Alteri Marunda RT  01 RW 03",
    "latitude": -6.111579,
    "longitude": 106.927423,
    "risk_status": "Normal"
  },
  {
    "name": "TPS RW  10 Bak Tugu Semper Timur",
    "wilayah": "Jakarta Utara",
    "kecamatan": "Cilincing",
    "kelurahan": "Semper Timur",
    "jenis_tps": "Tipe 3",
    "alamat": "Jl  Cacing RW  010",
    "latitude": -6.111579,
    "longitude": 106.927423,
    "risk_status": "Normal"
  },
  {
    "name": "TPS RW  09 Airud",
    "wilayah": "Jakarta Utara",
    "kecamatan": "Cilincing",
    "kelurahan": "Semper Timur",
    "jenis_tps": "Tipe 2",
    "alamat": "Jl  Arjuna III RT  10 RW  09",
    "latitude": -6.10796745405,
    "longitude": 106.929159558,
    "risk_status": "Normal"
  },
  {
    "name": "TPS RW  03 Sungai Begog Semper Timur",
    "wilayah": "Jakarta Utara",
    "kecamatan": "Cilincing",
    "kelurahan": "Semper Timur",
    "jenis_tps": "Tipe 2",
    "alamat": "Jl  Peralihan RT  06 RW  03",
    "latitude": -6.11790610737,
    "longitude": 106.934513304,
    "risk_status": "Normal"
  },
  {
    "name": "TPS LINTAS RW  05 Semper Barat",
    "wilayah": "Jakarta Utara",
    "kecamatan": "Cilincing",
    "kelurahan": "Semper Barat",
    "jenis_tps": "Lintas",
    "alamat": "Jl  Raya Tipar Cakung RW  05",
    "latitude": -6.11460068174,
    "longitude": 106.924095105,
    "risk_status": "Normal"
  },
  {
    "name": "TPS RW  06 Semper Barat",
    "wilayah": "Jakarta Utara",
    "kecamatan": "Cilincing",
    "kelurahan": "Semper Barat",
    "jenis_tps": "Tipe 4",
    "alamat": "Jl  Raya Cacing RT  11 RW  06",
    "latitude": -6.134835,
    "longitude": 106.928804,
    "risk_status": "Normal"
  },
  {
    "name": "TPS RW  04 Waduk Belibis Semper Barat",
    "wilayah": "Jakarta Utara",
    "kecamatan": "Cilincing",
    "kelurahan": "Semper Barat",
    "jenis_tps": "Tipe 4",
    "alamat": "Jl  Rusun Embrio RW 04",
    "latitude": -6.134835,
    "longitude": 106.928804,
    "risk_status": "Normal"
  },
  {
    "name": "TPS RW  04 Semper Barat",
    "wilayah": "Jakarta Utara",
    "kecamatan": "Cilincing",
    "kelurahan": "Semper Barat",
    "jenis_tps": "Tipe 4",
    "alamat": "Rusun Embrio",
    "latitude": -6.134835,
    "longitude": 106.928804,
    "risk_status": "Normal"
  },
  {
    "name": "TPS Kel  Jatipadang",
    "wilayah": "Jakarta Selatan",
    "kecamatan": "Pasar Minggu",
    "kelurahan": "Jati Padang",
    "jenis_tps": "Tipe 4",
    "alamat": "Kelurahan Jati Padang",
    "latitude": -6.285552,
    "longitude": 106.834784,
    "risk_status": "Normal"
  },
  {
    "name": "TPS RS  Hewan",
    "wilayah": "Jakarta Selatan",
    "kecamatan": "Pasar Minggu",
    "kelurahan": "Ragunan",
    "jenis_tps": "Tipe 4",
    "alamat": "Jl  Harsono RM No  28 RT  9 RW  4",
    "latitude": -6.2976668,
    "longitude": 106.8204823,
    "risk_status": "Normal"
  },
  {
    "name": "TPS Saco",
    "wilayah": "Jakarta Selatan",
    "kecamatan": "Pasar Minggu",
    "kelurahan": "Ragunan",
    "jenis_tps": "Tipe 4",
    "alamat": "Jl  Saco RW  08",
    "latitude": -6.310594,
    "longitude": 106.816227,
    "risk_status": "Normal"
  },
  {
    "name": "TPS JPO SMK 57",
    "wilayah": "Jakarta Selatan",
    "kecamatan": "Pasar Minggu",
    "kelurahan": "Jati Padang",
    "jenis_tps": "Tipe 4",
    "alamat": "Jl  Raya Taman Margasatwa  JPO SMKN 57",
    "latitude": -6.286061,
    "longitude": 106.825992,
    "risk_status": "Normal"
  },
  {
    "name": "TPS LPS Jeruk Purut",
    "wilayah": "Jakarta Selatan",
    "kecamatan": "Pasar Minggu",
    "kelurahan": "Cilandak Timur",
    "jenis_tps": "Tipe 4",
    "alamat": "Jl  Raya Madrasah No  14 RT  007 06  Jeruk Purut",
    "latitude": -6.277532,
    "longitude": 106.813597,
    "risk_status": "Normal"
  },
  {
    "name": "TPS Kober",
    "wilayah": "Jakarta Selatan",
    "kecamatan": "Pasar Minggu",
    "kelurahan": "Kebagusan",
    "jenis_tps": "Tipe 4",
    "alamat": "RW  07 Jalan Kebagusan Raya  Kober",
    "latitude": -6.3006,
    "longitude": 106.8278,
    "risk_status": "Normal"
  },
  {
    "name": "PD Pasar Jaya",
    "wilayah": "Jakarta Selatan",
    "kecamatan": "Pasar Minggu",
    "kelurahan": "Pasar Minggu",
    "jenis_tps": "Tipe 1",
    "alamat": "Jl  Raya Pasar Minggu PD Pasar Jaya",
    "latitude": -6.283888,
    "longitude": 106.843716,
    "risk_status": "Normal"
  },
  {
    "name": "TPS Depen RW  007",
    "wilayah": "Jakarta Selatan",
    "kecamatan": "Pesanggrahan",
    "kelurahan": "Pesanggrahan",
    "jenis_tps": "Tipe 4",
    "alamat": "Jl  Pesanggrahan Raya RW  007",
    "latitude": -6.250958,
    "longitude": 106.756215,
    "risk_status": "Normal"
  },
  {
    "name": "TPS RW  001 Pesanggrahan",
    "wilayah": "Jakarta Selatan",
    "kecamatan": "Pesanggrahan",
    "kelurahan": "Pesanggrahan",
    "jenis_tps": "Tipe 4",
    "alamat": "Jl  Ulujami Raya",
    "latitude": -6.25352233429,
    "longitude": 106.764724308,
    "risk_status": "Normal"
  },
  {
    "name": "TPS RW  005 Komp  Kodam",
    "wilayah": "Jakarta Selatan",
    "kecamatan": "Pesanggrahan",
    "kelurahan": "Pesanggrahan",
    "jenis_tps": "Tipe 4",
    "alamat": "Jl  Pesanggrahan Raya",
    "latitude": -6.25920949,
    "longitude": 106.7560283,
    "risk_status": "Normal"
  },
  {
    "name": "TPS RW  008 Pesanggrahan",
    "wilayah": "Jakarta Selatan",
    "kecamatan": "Pesanggrahan",
    "kelurahan": "Pesanggrahan",
    "jenis_tps": "Tipe 4",
    "alamat": "Jl  Bintaro Puspita Raya Perumahan Bumi Bintaro Permai",
    "latitude": -6.26512321,
    "longitude": 106.7562971,
    "risk_status": "Normal"
  },
  {
    "name": "TPS RW  002 Bintaro",
    "wilayah": "Jakarta Selatan",
    "kecamatan": "Pesanggrahan",
    "kelurahan": "Bintaro",
    "jenis_tps": "Tipe 4",
    "alamat": "Jl  Depsos Raya",
    "latitude": -6.26365596089,
    "longitude": 106.762042048,
    "risk_status": "Normal"
  },
  {
    "name": "TPS Deplu RW  003",
    "wilayah": "Jakarta Selatan",
    "kecamatan": "Pesanggrahan",
    "kelurahan": "Bintaro",
    "jenis_tps": "Tipe 4",
    "alamat": "Jl  Deplu",
    "latitude": -6.27455459,
    "longitude": 106.7672713,
    "risk_status": "Normal"
  },
  {
    "name": "TPS RW  08 Bintaro",
    "wilayah": "Jakarta Selatan",
    "kecamatan": "Pesanggrahan",
    "kelurahan": "Bintaro",
    "jenis_tps": "Tipe 4",
    "alamat": "Jl  Garuda RT  006 RW  008",
    "latitude": -6.26365596089,
    "longitude": 106.762042048,
    "risk_status": "Normal"
  },
  {
    "name": "TPS RW  003 Ulujami",
    "wilayah": "Jakarta Selatan",
    "kecamatan": "Pesanggrahan",
    "kelurahan": "Ulujami",
    "jenis_tps": "Tipe 4",
    "alamat": "Jl  H  Rohimin",
    "latitude": -6.23229791581,
    "longitude": 106.761274647,
    "risk_status": "Normal"
  },
  {
    "name": "TPS RW  007 Ulujami",
    "wilayah": "Jakarta Selatan",
    "kecamatan": "Pesanggrahan",
    "kelurahan": "Ulujami",
    "jenis_tps": "Tipe 4",
    "alamat": "Jl  Inspeksi",
    "latitude": -6.24846442,
    "longitude": 106.7663749,
    "risk_status": "Normal"
  },
  {
    "name": "TPS RW  008 Petukangan Selatan",
    "wilayah": "Jakarta Selatan",
    "kecamatan": "Pesanggrahan",
    "kelurahan": "Petukangan Selatan",
    "jenis_tps": "Tipe 4",
    "alamat": "Jl  Pesanggrahan Mas  Komp  Bumi Pesanggrahan Mas",
    "latitude": -6.24600546,
    "longitude": 106.7498737,
    "risk_status": "Normal"
  },
  {
    "name": "TPS Gateway",
    "wilayah": "Jakarta Selatan",
    "kecamatan": "Pesanggrahan",
    "kelurahan": "Petukangan Selatan",
    "jenis_tps": "Tipe 4",
    "alamat": "Jl  Ciledug Raya",
    "latitude": -6.237357921,
    "longitude": 106.747990224,
    "risk_status": "Normal"
  },
  {
    "name": "TPS RW  007 Petukangan Utara",
    "wilayah": "Jakarta Selatan",
    "kecamatan": "Pesanggrahan",
    "kelurahan": "Petukangan Utara",
    "jenis_tps": "Tipe 4",
    "alamat": "Jl  Taman Alfa Indah  Komp  Alfa",
    "latitude": -6.226164,
    "longitude": 106.750726,
    "risk_status": "Normal"
  },
  {
    "name": "TPS RW  010 Petukangan Utara",
    "wilayah": "Jakarta Selatan",
    "kecamatan": "Pesanggrahan",
    "kelurahan": "Petukangan Utara",
    "jenis_tps": "Tipe 4",
    "alamat": "Jl  Masjid",
    "latitude": -6.226164,
    "longitude": 106.750726,
    "risk_status": "Normal"
  },
  {
    "name": "TPS RW  001 Petukangan Utara",
    "wilayah": "Jakarta Selatan",
    "kecamatan": "Pesanggrahan",
    "kelurahan": "Petukangan Utara",
    "jenis_tps": "Tipe 4",
    "alamat": "Jl  AMD  SMA 63",
    "latitude": -6.226164,
    "longitude": 106.750726,
    "risk_status": "Normal"
  },
  {
    "name": "TPS Kota Gedang",
    "wilayah": "Jakarta Selatan",
    "kecamatan": "Setiabudi",
    "kelurahan": "Pasar Manggis",
    "jenis_tps": "Tipe 4",
    "alamat": "Jl  Kota Gedang RW  01 Kel  Ps Manggis",
    "latitude": -6.211165,
    "longitude": 106.844265,
    "risk_status": "Normal"
  },
  {
    "name": "TPS RW  02 Setiabudi",
    "wilayah": "Jakarta Selatan",
    "kecamatan": "Setiabudi",
    "kelurahan": "Setiabudi",
    "jenis_tps": "Tipe 4",
    "alamat": "Jl  Setiabudi Selatan RW  02 Kel  Setiabudi",
    "latitude": -6.2073266,
    "longitude": 106.8256107,
    "risk_status": "Normal"
  },
  {
    "name": "TPS RW  05 Karet",
    "wilayah": "Jakarta Selatan",
    "kecamatan": "Setiabudi",
    "kelurahan": "Karet",
    "jenis_tps": "Tipe 2",
    "alamat": "Jl  Karet Karya RW  05 Kel  Karet",
    "latitude": -6.218523,
    "longitude": 106.819329,
    "risk_status": "Normal"
  },
  {
    "name": "TPS Kawi",
    "wilayah": "Jakarta Selatan",
    "kecamatan": "Setiabudi",
    "kelurahan": "Pasar Manggis",
    "jenis_tps": "Tipe 4",
    "alamat": "Jl  Kawi RW  06 Kel  Ps  Manggis",
    "latitude": -6.2103818,
    "longitude": 106.8412272,
    "risk_status": "Normal"
  },
  {
    "name": "TPS Ciliwung",
    "wilayah": "Jakarta Selatan",
    "kecamatan": "Tebet",
    "kelurahan": "Kebon Baru",
    "jenis_tps": "Tipe 1",
    "alamat": "Jl  Asem Baris Raya",
    "latitude": -6.242132079,
    "longitude": 106.862250995,
    "risk_status": "Normal"
  },
  {
    "name": "TPS Pasar Bukit Duri",
    "wilayah": "Jakarta Selatan",
    "kecamatan": "Tebet",
    "kelurahan": "Bukit Duri",
    "jenis_tps": "Tipe 1",
    "alamat": "Jl  Bukit Duri Barat RT  008 RW  01",
    "latitude": -6.21785,
    "longitude": 106.854032,
    "risk_status": "Normal"
  },
  {
    "name": "TPS Manggarai",
    "wilayah": "Jakarta Selatan",
    "kecamatan": "Tebet",
    "kelurahan": "Manggarai",
    "jenis_tps": "Tipe 2",
    "alamat": "Jl  Manggarai Utara",
    "latitude": -6.209048,
    "longitude": 106.849549,
    "risk_status": "Normal"
  },
  {
    "name": "TPS RW  12 Bukit Duri",
    "wilayah": "Jakarta Selatan",
    "kecamatan": "Tebet",
    "kelurahan": "Bukit Duri",
    "jenis_tps": "Tipe 1",
    "alamat": "Jl  Kampung Melayu Kecil",
    "latitude": -6.21785,
    "longitude": 106.854032,
    "risk_status": "Normal"
  },
  {
    "name": "TPS RW  05  amp  08 Manggarai",
    "wilayah": "Jakarta Selatan",
    "kecamatan": "Tebet",
    "kelurahan": "Manggarai",
    "jenis_tps": "Tipe 4",
    "alamat": "Jl  Manggarai Utara",
    "latitude": -6.2101704,
    "longitude": 106.849935,
    "risk_status": "Normal"
  },
  {
    "name": "TPS RW  05",
    "wilayah": "Jakarta Timur",
    "kecamatan": "Cakung",
    "kelurahan": "Ujung Menteng",
    "jenis_tps": "Tipe 4",
    "alamat": "Jl  Rawa Kuning",
    "latitude": -6.19109956049,
    "longitude": 106.966771181,
    "risk_status": "Normal"
  },
  {
    "name": "TPS RW  003",
    "wilayah": "Jakarta Timur",
    "kecamatan": "Cakung",
    "kelurahan": "Cakung Barat",
    "jenis_tps": "Tipe 4",
    "alamat": "Jl  Sisi Tol",
    "latitude": -6.2613682549,
    "longitude": 106.873514174,
    "risk_status": "Normal"
  },
  {
    "name": "TPS Rusun Albo",
    "wilayah": "Jakarta Timur",
    "kecamatan": "Cakung",
    "kelurahan": "Cakung Barat",
    "jenis_tps": "Tipe 4",
    "alamat": "Rusun Albo",
    "latitude": -6.167799,
    "longitude": 106.932288,
    "risk_status": "Normal"
  },
  {
    "name": "TPS Rusun Tipar",
    "wilayah": "Jakarta Timur",
    "kecamatan": "Cakung",
    "kelurahan": "Cakung Barat",
    "jenis_tps": "Tipe 4",
    "alamat": "Rusun Tipar",
    "latitude": -6.1717713,
    "longitude": 106.9367363,
    "risk_status": "Normal"
  },
  {
    "name": "TPS Rusun KM2",
    "wilayah": "Jakarta Timur",
    "kecamatan": "Cakung",
    "kelurahan": "Cakung Barat",
    "jenis_tps": "Tipe 4",
    "alamat": "Rusun KM2",
    "latitude": -6.18523,
    "longitude": 106.935099,
    "risk_status": "Normal"
  },
  {
    "name": "TPS Palad",
    "wilayah": "Jakarta Timur",
    "kecamatan": "Cakung",
    "kelurahan": "Cakung Barat",
    "jenis_tps": "Tipe 4",
    "alamat": "Jl  Raya Bekasi Komp  Palad",
    "latitude": -6.181782,
    "longitude": 106.933096,
    "risk_status": "Normal"
  },
  {
    "name": "TPS RT  14",
    "wilayah": "Jakarta Timur",
    "kecamatan": "Cakung",
    "kelurahan": "Rawa Terate",
    "jenis_tps": "Tipe 1",
    "alamat": "Jl  Radjiman RW  004",
    "latitude": -6.250522,
    "longitude": 106.884657,
    "risk_status": "Normal"
  },
  {
    "name": "TPS Indomaret",
    "wilayah": "Jakarta Timur",
    "kecamatan": "Cakung",
    "kelurahan": "Rawa Terate",
    "jenis_tps": "Tipe 4",
    "alamat": "Jl  Radjiman RW  006",
    "latitude": -6.19356636335,
    "longitude": 106.922824958,
    "risk_status": "Normal"
  },
  {
    "name": "TPS RT  006",
    "wilayah": "Jakarta Timur",
    "kecamatan": "Cakung",
    "kelurahan": "Rawa Terate",
    "jenis_tps": "Tipe 4",
    "alamat": "Jl  Radjiman RW  006",
    "latitude": -6.295287,
    "longitude": 106.908446,
    "risk_status": "Normal"
  },
  {
    "name": "TPS RT  002",
    "wilayah": "Jakarta Timur",
    "kecamatan": "Cakung",
    "kelurahan": "Rawa Terate",
    "jenis_tps": "Tipe 4",
    "alamat": "Jl  Radjiman RW  006",
    "latitude": -6.285768,
    "longitude": 106.908927,
    "risk_status": "Normal"
  },
  {
    "name": "TPS RT  009",
    "wilayah": "Jakarta Timur",
    "kecamatan": "Cakung",
    "kelurahan": "Rawa Terate",
    "jenis_tps": "Tipe 4",
    "alamat": "Jl  Radjiman RW  006",
    "latitude": -6.33187402337,
    "longitude": 106.860754402,
    "risk_status": "Normal"
  },
  {
    "name": "TPS RT  001",
    "wilayah": "Jakarta Timur",
    "kecamatan": "Cakung",
    "kelurahan": "Rawa Terate",
    "jenis_tps": "Tipe 4",
    "alamat": "Jl  Radjiman RW  004",
    "latitude": -6.23288,
    "longitude": 106.91839,
    "risk_status": "Normal"
  },
  {
    "name": "TPS RT  11",
    "wilayah": "Jakarta Timur",
    "kecamatan": "Cakung",
    "kelurahan": "Rawa Terate",
    "jenis_tps": "Tipe 4",
    "alamat": "Jl  Radjiman RW  004",
    "latitude": -6.28095747523,
    "longitude": 106.873525266,
    "risk_status": "Normal"
  },
  {
    "name": "TPS RT  005",
    "wilayah": "Jakarta Timur",
    "kecamatan": "Cakung",
    "kelurahan": "Rawa Terate",
    "jenis_tps": "Tipe 4",
    "alamat": "Jl  Radjiman RW  006",
    "latitude": -6.297331,
    "longitude": 106.908056,
    "risk_status": "Normal"
  },
  {
    "name": "TPS Damri",
    "wilayah": "Jakarta Timur",
    "kecamatan": "Cakung",
    "kelurahan": "Rawa Terate",
    "jenis_tps": "Tipe 4",
    "alamat": "Jl  Radjiman RW  006",
    "latitude": -6.185787,
    "longitude": 106.923373,
    "risk_status": "Normal"
  },
  {
    "name": "TPS RT  010",
    "wilayah": "Jakarta Timur",
    "kecamatan": "Cakung",
    "kelurahan": "Rawa Terate",
    "jenis_tps": "Tipe 4",
    "alamat": "Jl  Radjiman RW  004",
    "latitude": -6.285768,
    "longitude": 106.908927,
    "risk_status": "Normal"
  },
  {
    "name": "TPS RT  014",
    "wilayah": "Jakarta Timur",
    "kecamatan": "Cakung",
    "kelurahan": "Rawa Terate",
    "jenis_tps": "Tipe 2",
    "alamat": "Jl  Radjiman RW  004",
    "latitude": -6.21651,
    "longitude": 106.922325,
    "risk_status": "Normal"
  },
  {
    "name": "TPS RT  10",
    "wilayah": "Jakarta Timur",
    "kecamatan": "Cakung",
    "kelurahan": "Rawa Terate",
    "jenis_tps": "Tipe 4",
    "alamat": "Jl  Radjiman RW  004",
    "latitude": -6.297331,
    "longitude": 106.908056,
    "risk_status": "Normal"
  },
  {
    "name": "TPS RT  09",
    "wilayah": "Jakarta Timur",
    "kecamatan": "Cakung",
    "kelurahan": "Rawa Terate",
    "jenis_tps": "Tipe 4",
    "alamat": "Jl  Radjiman RW  006",
    "latitude": -6.267348,
    "longitude": 106.868743,
    "risk_status": "Normal"
  },
  {
    "name": "TPS RW  008",
    "wilayah": "Jakarta Timur",
    "kecamatan": "Cakung",
    "kelurahan": "Penggilingan",
    "jenis_tps": "Tipe 4",
    "alamat": "Jl  Raya Pengiilingan",
    "latitude": -6.2494274,
    "longitude": 106.87972089,
    "risk_status": "Normal"
  },
  {
    "name": "TPS Rusun Pinus Blok A",
    "wilayah": "Jakarta Timur",
    "kecamatan": "Cakung",
    "kelurahan": "Penggilingan",
    "jenis_tps": "Tipe 4",
    "alamat": "Rusun Pinus Blok A",
    "latitude": -6.2050399,
    "longitude": 106.9358877,
    "risk_status": "Normal"
  },
  {
    "name": "TPS Rusun Pinus Blok B",
    "wilayah": "Jakarta Timur",
    "kecamatan": "Cakung",
    "kelurahan": "Penggilingan",
    "jenis_tps": "Tipe 4",
    "alamat": "Rusun Pinus Blok B",
    "latitude": -6.2050399,
    "longitude": 106.9358877,
    "risk_status": "Normal"
  },
  {
    "name": "TPS Rusun Pinus Blok D",
    "wilayah": "Jakarta Timur",
    "kecamatan": "Cakung",
    "kelurahan": "Penggilingan",
    "jenis_tps": "Tipe 4",
    "alamat": "Rusun Pinus Blok B",
    "latitude": -6.2050399,
    "longitude": 106.9358877,
    "risk_status": "Normal"
  },
  {
    "name": "TPS Rusun Pinus Blok E",
    "wilayah": "Jakarta Timur",
    "kecamatan": "Cakung",
    "kelurahan": "Penggilingan",
    "jenis_tps": "Tipe 4",
    "alamat": "Rusun Pinus Blok B",
    "latitude": -6.2050399,
    "longitude": 106.9358877,
    "risk_status": "Normal"
  },
  {
    "name": "TPS Rusun Komarudin",
    "wilayah": "Jakarta Timur",
    "kecamatan": "Cakung",
    "kelurahan": "Penggilingan",
    "jenis_tps": "Tipe 4",
    "alamat": "Rusun P Komarudin",
    "latitude": -6.2050399,
    "longitude": 106.9358877,
    "risk_status": "Normal"
  },
  {
    "name": "TPS Tikungan",
    "wilayah": "Jakarta Timur",
    "kecamatan": "Cakung",
    "kelurahan": "Penggilingan",
    "jenis_tps": "Tipe 4",
    "alamat": "Jl  Raya Soemarno",
    "latitude": -6.2050399,
    "longitude": 106.9358877,
    "risk_status": "Normal"
  },
  {
    "name": "TPS RW  08",
    "wilayah": "Jakarta Timur",
    "kecamatan": "Cakung",
    "kelurahan": "Cakung Timur",
    "jenis_tps": "Tipe 4",
    "alamat": "RW  008",
    "latitude": -6.215679,
    "longitude": 106.875806,
    "risk_status": "Normal"
  },
  {
    "name": "TPS RW  07",
    "wilayah": "Jakarta Timur",
    "kecamatan": "Cakung",
    "kelurahan": "Cakung Timur",
    "jenis_tps": "Tipe 4",
    "alamat": "RW  07",
    "latitude": -6.26142340788,
    "longitude": 106.860393787,
    "risk_status": "Normal"
  },
  {
    "name": "TPS Gardu",
    "wilayah": "Jakarta Timur",
    "kecamatan": "Cakung",
    "kelurahan": "Jatinegara",
    "jenis_tps": "Tipe 4",
    "alamat": "Bak Gardu",
    "latitude": -6.2025216,
    "longitude": 106.9228236,
    "risk_status": "Normal"
  },
  {
    "name": "TPS Arion",
    "wilayah": "Jakarta Timur",
    "kecamatan": "Cakung",
    "kelurahan": "Jatinegara",
    "jenis_tps": "Tipe 4",
    "alamat": "Arion",
    "latitude": -6.202706,
    "longitude": 106.922971,
    "risk_status": "Normal"
  },
  {
    "name": "TPS PTUN",
    "wilayah": "Jakarta Timur",
    "kecamatan": "Cakung",
    "kelurahan": "Pulogebang",
    "jenis_tps": "Tipe 4",
    "alamat": "Jl  Sawo Kecik RT  11 RW  08",
    "latitude": -6.214111,
    "longitude": 106.946974,
    "risk_status": "Normal"
  },
  {
    "name": "TPS PLN",
    "wilayah": "Jakarta Timur",
    "kecamatan": "Cakung",
    "kelurahan": "Pulogebang",
    "jenis_tps": "Tipe 4",
    "alamat": "Jl  Sawo Kecik RW  08",
    "latitude": -6.2117281,
    "longitude": 106.9512437,
    "risk_status": "Normal"
  },
  {
    "name": "TPS Merah",
    "wilayah": "Jakarta Timur",
    "kecamatan": "Cakung",
    "kelurahan": "Pulogebang",
    "jenis_tps": "Tipe 4",
    "alamat": "Jl  Soemarno",
    "latitude": -6.212229,
    "longitude": 106.943861,
    "risk_status": "Normal"
  },
  {
    "name": "TPS Permai",
    "wilayah": "Jakarta Timur",
    "kecamatan": "Cakung",
    "kelurahan": "Pulogebang",
    "jenis_tps": "Tipe 1",
    "alamat": "Jl  Pulau Sangiyang",
    "latitude": -6.193667,
    "longitude": 106.945297,
    "risk_status": "Normal"
  },
  {
    "name": "TPS Pasar",
    "wilayah": "Jakarta Timur",
    "kecamatan": "Cakung",
    "kelurahan": "Cakung Barat",
    "jenis_tps": "Tipe 4",
    "alamat": "Jl  Raya Bekasi",
    "latitude": -6.183113,
    "longitude": 106.935011,
    "risk_status": "Normal"
  },
  {
    "name": "TPS RT  04 RW  05 No  95",
    "wilayah": "Jakarta Timur",
    "kecamatan": "Cipayung",
    "kelurahan": "Setu",
    "jenis_tps": "Tipe 4",
    "alamat": "Jl  H  Karim RT  04 RW  05",
    "latitude": -6.313565,
    "longitude": 106.911993,
    "risk_status": "Normal"
  },
  {
    "name": "TPS RT 04 RW 05 No  65",
    "wilayah": "Jakarta Timur",
    "kecamatan": "Cipayung",
    "kelurahan": "Setu",
    "jenis_tps": "Tipe 4",
    "alamat": "Jl  H  Karim RT  04 RW  05",
    "latitude": -6.313565,
    "longitude": 106.911993,
    "risk_status": "Normal"
  },
  {
    "name": "TPS PBSI",
    "wilayah": "Jakarta Timur",
    "kecamatan": "Cipayung",
    "kelurahan": "Cipayung",
    "jenis_tps": "Tipe 4",
    "alamat": "Jl  PBSI",
    "latitude": -6.3293992,
    "longitude": 106.9037389,
    "risk_status": "Normal"
  },
  {
    "name": "TPS RT  05 RW  05",
    "wilayah": "Jakarta Timur",
    "kecamatan": "Cipayung",
    "kelurahan": "Setu",
    "jenis_tps": "Tipe 4",
    "alamat": "Jl  H  Karim RT  05 RW  05",
    "latitude": -6.311436,
    "longitude": 106.913453,
    "risk_status": "Normal"
  },
  {
    "name": "TPS RW  03",
    "wilayah": "Jakarta Timur",
    "kecamatan": "Cipayung",
    "kelurahan": "Bambu Apus",
    "jenis_tps": "Tipe 2",
    "alamat": "Jl  Mini III A RW  03",
    "latitude": -6.26447073742,
    "longitude": 106.872142163,
    "risk_status": "Normal"
  },
  {
    "name": "TPS Madu Indah",
    "wilayah": "Jakarta Timur",
    "kecamatan": "Cipayung",
    "kelurahan": "Bambu Apus",
    "jenis_tps": "Tipe 4",
    "alamat": "Jl  Madu Indah RT  02 RW  03",
    "latitude": -6.311734,
    "longitude": 106.904083,
    "risk_status": "Normal"
  },
  {
    "name": "TPS Buni",
    "wilayah": "Jakarta Timur",
    "kecamatan": "Cipayung",
    "kelurahan": "Munjul",
    "jenis_tps": "Tipe 4",
    "alamat": "Asrama POLRI Buni RT  08 RW  08",
    "latitude": -6.3478538,
    "longitude": 106.8955892,
    "risk_status": "Normal"
  },
  {
    "name": "TPS Kramat 1",
    "wilayah": "Jakarta Timur",
    "kecamatan": "Cipayung",
    "kelurahan": "Lubang Buaya",
    "jenis_tps": "Tipe 4",
    "alamat": "Jl  Kramat 1 RW  10",
    "latitude": -6.2928737,
    "longitude": 106.9030865,
    "risk_status": "Normal"
  },
  {
    "name": "TPS Panti Sosial Bina Insani",
    "wilayah": "Jakarta Timur",
    "kecamatan": "Cipayung",
    "kelurahan": "Ceger",
    "jenis_tps": "Tipe 4",
    "alamat": "Jl  Bina Marga",
    "latitude": -6.319401,
    "longitude": 106.891841,
    "risk_status": "Normal"
  },
  {
    "name": "TPS Panti PSAA",
    "wilayah": "Jakarta Timur",
    "kecamatan": "Cipayung",
    "kelurahan": "Ceger",
    "jenis_tps": "Tipe 4",
    "alamat": "Jl  Bina Marga",
    "latitude": -6.31798,
    "longitude": 106.89403,
    "risk_status": "Normal"
  },
  {
    "name": "TPS RW  03",
    "wilayah": "Jakarta Timur",
    "kecamatan": "Cipayung",
    "kelurahan": "Ceger",
    "jenis_tps": "Tipe 2",
    "alamat": "Jl  Raya Ceger RT  03 RW  03",
    "latitude": -6.26447073742,
    "longitude": 106.872142163,
    "risk_status": "Normal"
  },
  {
    "name": "TPS RT  03 RW  05  JPO",
    "wilayah": "Jakarta Timur",
    "kecamatan": "Cipayung",
    "kelurahan": "Setu",
    "jenis_tps": "Tipe 4",
    "alamat": "Jl  H  Karim RT  03 RW  05",
    "latitude": -6.317627,
    "longitude": 106.906285,
    "risk_status": "Normal"
  },
  {
    "name": "TPS Lintas Setu Raya",
    "wilayah": "Jakarta Timur",
    "kecamatan": "Cipayung",
    "kelurahan": "Setu",
    "jenis_tps": "Tipe 4",
    "alamat": "Jl  Setu Raya RT  05 RW  01",
    "latitude": -6.312492,
    "longitude": 106.913409,
    "risk_status": "Normal"
  },
  {
    "name": "TPS Palem Kartika Depan",
    "wilayah": "Jakarta Timur",
    "kecamatan": "Cipayung",
    "kelurahan": "Bambu Apus",
    "jenis_tps": "Tipe 4",
    "alamat": "Perum Palem Kartika",
    "latitude": -6.312278,
    "longitude": 106.899001,
    "risk_status": "Normal"
  },
  {
    "name": "TPS Palem Kartika Tengah",
    "wilayah": "Jakarta Timur",
    "kecamatan": "Cipayung",
    "kelurahan": "Bambu Apus",
    "jenis_tps": "Tipe 4",
    "alamat": "Perum Palem Kartika",
    "latitude": -6.312278,
    "longitude": 106.899001,
    "risk_status": "Normal"
  },
  {
    "name": "TPS Palem Kartika Belakang",
    "wilayah": "Jakarta Timur",
    "kecamatan": "Cipayung",
    "kelurahan": "Bambu Apus",
    "jenis_tps": "Tipe 4",
    "alamat": "Perum Palem Kartika",
    "latitude": -6.312278,
    "longitude": 106.899001,
    "risk_status": "Normal"
  },
  {
    "name": "TPS Panti Bina Laras Harapan Sentosa",
    "wilayah": "Jakarta Timur",
    "kecamatan": "Cipayung",
    "kelurahan": "Cipayung",
    "jenis_tps": "Tipe 3",
    "alamat": "Jl  Bina Marga No  18  RT  5 RW  4 Ceger Kec  Cipayung",
    "latitude": -6.319528,
    "longitude": 106.890809,
    "risk_status": "Normal"
  },
  {
    "name": "TPS Jankes RW 01 Munjul",
    "wilayah": "Jakarta Timur",
    "kecamatan": "Cipayung",
    "kelurahan": "Munjul",
    "jenis_tps": "Tipe 4",
    "alamat": "Jl  Jankes AD RW  01 Munjul",
    "latitude": -6.3478538,
    "longitude": 106.8955892,
    "risk_status": "Normal"
  },
  {
    "name": "TPS RW  03",
    "wilayah": "Jakarta Timur",
    "kecamatan": "Ciracas",
    "kelurahan": "Ciracas",
    "jenis_tps": "Tipe 2",
    "alamat": "Gg  Hanafi Jl  Raya Centex",
    "latitude": -6.26447073742,
    "longitude": 106.872142163,
    "risk_status": "Normal"
  },
  {
    "name": "TPS RW  01",
    "wilayah": "Jakarta Timur",
    "kecamatan": "Ciracas",
    "kelurahan": "Rambutan",
    "jenis_tps": "Tipe 4",
    "alamat": "Jl  H  Jenih",
    "latitude": -6.182381,
    "longitude": 106.904367,
    "risk_status": "Normal"
  },
  {
    "name": "TPS Gebras",
    "wilayah": "Jakarta Timur",
    "kecamatan": "Ciracas",
    "kelurahan": "Rambutan",
    "jenis_tps": "Tipe 4",
    "alamat": "Jl  Tanah Merdeka",
    "latitude": -6.307679,
    "longitude": 106.873597,
    "risk_status": "Normal"
  },
  {
    "name": "TPS Komplek HANKAM",
    "wilayah": "Jakarta Timur",
    "kecamatan": "Ciracas",
    "kelurahan": "Kelapa Dua Wetan",
    "jenis_tps": "Tipe 4",
    "alamat": "Jl  Komplek HANKAM",
    "latitude": -6.348741,
    "longitude": 106.87895,
    "risk_status": "Normal"
  },
  {
    "name": "TPS Panti Jompo Bakti Mandiri",
    "wilayah": "Jakarta Timur",
    "kecamatan": "Ciracas",
    "kelurahan": "Cibubur",
    "jenis_tps": "Tipe 4",
    "alamat": "Jl  Karya Bakti",
    "latitude": -6.355161,
    "longitude": 106.8807665,
    "risk_status": "Normal"
  },
  {
    "name": "TPS GOR Cibubur",
    "wilayah": "Jakarta Timur",
    "kecamatan": "Ciracas",
    "kelurahan": "Cibubur",
    "jenis_tps": "Tipe 4",
    "alamat": "Jl  Karya Bakti Cibubur",
    "latitude": -6.355161,
    "longitude": 106.8807665,
    "risk_status": "Normal"
  },
  {
    "name": "TPS Komplek POLRI",
    "wilayah": "Jakarta Timur",
    "kecamatan": "Ciracas",
    "kelurahan": "Ciracas",
    "jenis_tps": "Tipe 4",
    "alamat": "Jl  Komplek POLRI Jl  Formos",
    "latitude": -6.334842,
    "longitude": 106.87137,
    "risk_status": "Normal"
  },
  {
    "name": "TPS Rusun Pemadam",
    "wilayah": "Jakarta Timur",
    "kecamatan": "Ciracas",
    "kelurahan": "Ciracas",
    "jenis_tps": "Tipe 4",
    "alamat": "Jl  Raya Poncol",
    "latitude": -6.324538898,
    "longitude": 106.868062137,
    "risk_status": "Normal"
  },
  {
    "name": "TPS Bak Madrasah",
    "wilayah": "Jakarta Timur",
    "kecamatan": "Ciracas",
    "kelurahan": "Susukan",
    "jenis_tps": "Tipe 4",
    "alamat": "Jl  Madrasah RW  05",
    "latitude": -6.30514033022,
    "longitude": 106.866489757,
    "risk_status": "Normal"
  },
  {
    "name": "TPS Bak Buah",
    "wilayah": "Jakarta Timur",
    "kecamatan": "Ciracas",
    "kelurahan": "Susukan",
    "jenis_tps": "Tipe 4",
    "alamat": "Jl  Supriyadi RW  05",
    "latitude": -6.306718,
    "longitude": 106.866566,
    "risk_status": "Normal"
  },
  {
    "name": "TPS Bak RT",
    "wilayah": "Jakarta Timur",
    "kecamatan": "Ciracas",
    "kelurahan": "Susukan",
    "jenis_tps": "Tipe 1",
    "alamat": "Jl  Supriyadi RW  02",
    "latitude": -6.2278337376,
    "longitude": 106.882945009,
    "risk_status": "Normal"
  },
  {
    "name": "TPS Kuburan Cina Sentiong",
    "wilayah": "Jakarta Timur",
    "kecamatan": "Ciracas",
    "kelurahan": "Susukan",
    "jenis_tps": "Tipe 4",
    "alamat": "Jl  Tanah Merdeka",
    "latitude": -6.3122872,
    "longitude": 106.8674261,
    "risk_status": "Normal"
  },
  {
    "name": "TPS Polsek Ciracas",
    "wilayah": "Jakarta Timur",
    "kecamatan": "Ciracas",
    "kelurahan": "Rambutan",
    "jenis_tps": "Tipe 4",
    "alamat": "Jl  Raya Bogor",
    "latitude": -6.290262,
    "longitude": 106.871767,
    "risk_status": "Normal"
  },
  {
    "name": "TPS Kavling 3",
    "wilayah": "Jakarta Timur",
    "kecamatan": "Ciracas",
    "kelurahan": "Rambutan",
    "jenis_tps": "Tipe 2",
    "alamat": "Jl  Laning",
    "latitude": -6.3023433,
    "longitude": 106.8747854,
    "risk_status": "Normal"
  },
  {
    "name": "TPS Kavling 2",
    "wilayah": "Jakarta Timur",
    "kecamatan": "Ciracas",
    "kelurahan": "Rambutan",
    "jenis_tps": "Tipe 2",
    "alamat": "Jl  SD Inpres",
    "latitude": -6.3027668,
    "longitude": 106.8744213,
    "risk_status": "Normal"
  },
  {
    "name": "TPS Kavling 1",
    "wilayah": "Jakarta Timur",
    "kecamatan": "Ciracas",
    "kelurahan": "Rambutan",
    "jenis_tps": "Tipe 2",
    "alamat": "Jl  Delima",
    "latitude": -6.304392,
    "longitude": 106.876081,
    "risk_status": "Normal"
  },
  {
    "name": "TPS Kampus UHAMKA",
    "wilayah": "Jakarta Timur",
    "kecamatan": "Ciracas",
    "kelurahan": "Rambutan",
    "jenis_tps": "Tipe 4",
    "alamat": "Jl  Tanah Merdeka",
    "latitude": -6.3046995,
    "longitude": 106.8745605,
    "risk_status": "Normal"
  },
  {
    "name": "TPS Bak Pisang",
    "wilayah": "Jakarta Timur",
    "kecamatan": "Ciracas",
    "kelurahan": "Rambutan",
    "jenis_tps": "Tipe 4",
    "alamat": "Jl  Supriyadi",
    "latitude": -6.30738,
    "longitude": 106.882726,
    "risk_status": "Normal"
  },
  {
    "name": "TPS Yayasan PKP",
    "wilayah": "Jakarta Timur",
    "kecamatan": "Ciracas",
    "kelurahan": "Kelapa Dua Wetan",
    "jenis_tps": "Tipe 4",
    "alamat": "Jl  Raya PKP",
    "latitude": -6.3391721,
    "longitude": 106.8831808,
    "risk_status": "Normal"
  },
  {
    "name": "TPS RW  06 Abadi",
    "wilayah": "Jakarta Timur",
    "kecamatan": "Duren Sawit",
    "kelurahan": "Duren Sawit",
    "jenis_tps": "Tipe 4",
    "alamat": "Jl  Abadi Komplek Abadi RW  06 Kel  Duren Sawit",
    "latitude": -6.22721560365,
    "longitude": 106.908189694,
    "risk_status": "Normal"
  },
  {
    "name": "TPS RW  10 Malaka Sari",
    "wilayah": "Jakarta Timur",
    "kecamatan": "Duren Sawit",
    "kelurahan": "Malaka Sari",
    "jenis_tps": "Tipe 4",
    "alamat": "Jl  Perumnas Raya RW  10 Kel  Malakasari",
    "latitude": -6.224299,
    "longitude": 106.9284449,
    "risk_status": "Normal"
  },
  {
    "name": "TPS Pertanian RW  02",
    "wilayah": "Jakarta Timur",
    "kecamatan": "Duren Sawit",
    "kelurahan": "Klender",
    "jenis_tps": "Tipe 4",
    "alamat": "Jl  I Gusti Ngurah Rai RW  02 Kel  Klender",
    "latitude": -6.21370482729,
    "longitude": 106.898992149,
    "risk_status": "Normal"
  },
  {
    "name": "TPS Stasiun Pengendali Sampah RW  01  SPS 01",
    "wilayah": "Jakarta Timur",
    "kecamatan": "Duren Sawit",
    "kelurahan": "Duren Sawit",
    "jenis_tps": "Tipe 4",
    "alamat": "Jl  Swadaya Raya RT  05 RW  01 Kel  Duren Sawit",
    "latitude": -6.25659091184,
    "longitude": 106.871466489,
    "risk_status": "Normal"
  },
  {
    "name": "TPS Aetra RW  05",
    "wilayah": "Jakarta Timur",
    "kecamatan": "Duren Sawit",
    "kelurahan": "Pondok Kelapa",
    "jenis_tps": "Tipe 1",
    "alamat": "Jl  Raya Kalimalang RW  05 Kel  Pondok Kelapa",
    "latitude": -6.249336,
    "longitude": 106.933924,
    "risk_status": "Normal"
  },
  {
    "name": "TPS RW  17 Duren Sawit",
    "wilayah": "Jakarta Timur",
    "kecamatan": "Duren Sawit",
    "kelurahan": "Duren Sawit",
    "jenis_tps": "Tipe 4",
    "alamat": "Jl  Laut Samudra RT  06 RW  17 Kel  Duren Sawit",
    "latitude": -6.2341378,
    "longitude": 106.9192472,
    "risk_status": "Normal"
  },
  {
    "name": "TPS RW  06",
    "wilayah": "Jakarta Timur",
    "kecamatan": "Duren Sawit",
    "kelurahan": "Klender",
    "jenis_tps": "Tipe 1",
    "alamat": "Jl  Pahlawan Revolusi RW  06 Kel  Klender",
    "latitude": -6.31232507358,
    "longitude": 106.874901299,
    "risk_status": "Normal"
  },
  {
    "name": "TPS LPS BKT  Sementara",
    "wilayah": "Jakarta Timur",
    "kecamatan": "Jatinegara",
    "kelurahan": "Cipinang Besar Selatan",
    "jenis_tps": "Tipe 1",
    "alamat": "Jl  Basuki Rahmat",
    "latitude": -6.2278337376,
    "longitude": 106.882945009,
    "risk_status": "Normal"
  },
  {
    "name": "TPS Pasar Elok",
    "wilayah": "Jakarta Timur",
    "kecamatan": "Jatinegara",
    "kelurahan": "Cipinang Muara",
    "jenis_tps": "Tipe 4",
    "alamat": "Gang HH No  14",
    "latitude": -6.22063488954,
    "longitude": 106.889188333,
    "risk_status": "Normal"
  },
  {
    "name": "TPS RW  08",
    "wilayah": "Jakarta Timur",
    "kecamatan": "Jatinegara",
    "kelurahan": "Cipinang Besar Utara",
    "jenis_tps": "Tipe 4",
    "alamat": "Jl  Bekasi Timur IV",
    "latitude": -6.215679,
    "longitude": 106.875806,
    "risk_status": "Normal"
  },
  {
    "name": "TPS RW  14",
    "wilayah": "Jakarta Timur",
    "kecamatan": "Jatinegara",
    "kelurahan": "Cipinang Besar Utara",
    "jenis_tps": "Tipe 1",
    "alamat": "Jl  Cipinang Latihan",
    "latitude": -6.250522,
    "longitude": 106.884657,
    "risk_status": "Normal"
  },
  {
    "name": "TPS Rusun Kp  Melayu RW  09",
    "wilayah": "Jakarta Timur",
    "kecamatan": "Jatinegara",
    "kelurahan": "Kampung Melayu",
    "jenis_tps": "Tipe 4",
    "alamat": "Jl  Jatinegara Barat",
    "latitude": -6.22297149891,
    "longitude": 106.865691801,
    "risk_status": "Normal"
  },
  {
    "name": "TPS RW  05 Sobur",
    "wilayah": "Jakarta Timur",
    "kecamatan": "Jatinegara",
    "kelurahan": "Cipinang Besar Utara",
    "jenis_tps": "Tipe 4",
    "alamat": "Jl  Prumpung Sawah",
    "latitude": -6.2179227,
    "longitude": 106.8806713,
    "risk_status": "Normal"
  },
  {
    "name": "TPS RW 11 Cawang",
    "wilayah": "Jakarta Timur",
    "kecamatan": "Kramat Jati",
    "kelurahan": "Cawang",
    "jenis_tps": "Tipe 4",
    "alamat": "Jl Waru Dalam RW 11 Cawang",
    "latitude": -6.249535,
    "longitude": 106.87067,
    "risk_status": "Normal"
  },
  {
    "name": "Denzibang Kel  Cijantung",
    "wilayah": "Jakarta Timur",
    "kecamatan": "Pasar Rebo",
    "kelurahan": "Cijantung",
    "jenis_tps": "Tipe 2",
    "alamat": "Jl  Pendidikan II Rt  04 Rw 04",
    "latitude": -6.3212053,
    "longitude": 106.8587894,
    "risk_status": "Normal"
  },
  {
    "name": "Komplek Rindam Kel  Gedong",
    "wilayah": "Jakarta Timur",
    "kecamatan": "Pasar Rebo",
    "kelurahan": "Gedong",
    "jenis_tps": "Tipe 2",
    "alamat": "Jl  komp  Rindam Jaya Rt 02 Rw 05 Kel  Gedong",
    "latitude": -6.3035401,
    "longitude": 106.8611734,
    "risk_status": "Normal"
  },
  {
    "name": "Tanah Merah Kel  Gedong",
    "wilayah": "Jakarta Timur",
    "kecamatan": "Pasar Rebo",
    "kelurahan": "Gedong",
    "jenis_tps": "Tipe 2",
    "alamat": "Jl  Raya Condet Rw 03 Kel  Gedong",
    "latitude": -6.29439,
    "longitude": 106.856792,
    "risk_status": "Normal"
  },
  {
    "name": "Gamya Kel  Gedong",
    "wilayah": "Jakarta Timur",
    "kecamatan": "Pasar Rebo",
    "kelurahan": "Gedong",
    "jenis_tps": "Tipe 2",
    "alamat": "Jl  Raya Condet Rw 01 Kel  Gedong",
    "latitude": -6.302388,
    "longitude": 106.856508,
    "risk_status": "Normal"
  },
  {
    "name": "Pasar Cijantung Kel  Gedong",
    "wilayah": "Jakarta Timur",
    "kecamatan": "Pasar Rebo",
    "kelurahan": "Gedong",
    "jenis_tps": "Tipe 2",
    "alamat": "Jl  Beringin Rw 011 Kel  Gedong",
    "latitude": -6.3035401,
    "longitude": 106.8611734,
    "risk_status": "Normal"
  },
  {
    "name": "K5 Pasar Cijantung Kel  Gedong",
    "wilayah": "Jakarta Timur",
    "kecamatan": "Pasar Rebo",
    "kelurahan": "Gedong",
    "jenis_tps": "Tipe 2",
    "alamat": "Jl  Beringin RW 04 Kel  Gedong",
    "latitude": -6.3035401,
    "longitude": 106.8611734,
    "risk_status": "Normal"
  },
  {
    "name": "SMA 104 Kel  Gedong",
    "wilayah": "Jakarta Timur",
    "kecamatan": "Pasar Rebo",
    "kelurahan": "Gedong",
    "jenis_tps": "Tipe 2",
    "alamat": "Jl  Ujung Gedong Rw 010 Kel Gedong",
    "latitude": -6.3035401,
    "longitude": 106.8611734,
    "risk_status": "Normal"
  },
  {
    "name": "Jl  Sederhana Kel  Gedong",
    "wilayah": "Jakarta Timur",
    "kecamatan": "Pasar Rebo",
    "kelurahan": "Gedong",
    "jenis_tps": "Tipe 2",
    "alamat": "Jl  Sederhana Rw 06 Kel  Gedong",
    "latitude": -6.3035401,
    "longitude": 106.8611734,
    "risk_status": "Normal"
  },
  {
    "name": "Asrama Polantas Kel  Gedong",
    "wilayah": "Jakarta Timur",
    "kecamatan": "Pasar Rebo",
    "kelurahan": "Gedong",
    "jenis_tps": "Tipe 2",
    "alamat": "Jl  TB  Simatupang RW 07 Kel  Gedong",
    "latitude": -6.302762,
    "longitude": 106.856449,
    "risk_status": "Normal"
  },
  {
    "name": "Jl  Bakung Kel  Gedong",
    "wilayah": "Jakarta Timur",
    "kecamatan": "Pasar Rebo",
    "kelurahan": "Gedong",
    "jenis_tps": "Tipe 2",
    "alamat": "Jl  Bakung Rt 01 02 Rw 011 Kel  Gedong",
    "latitude": -6.306046,
    "longitude": 106.861475,
    "risk_status": "Normal"
  },
  {
    "name": "TPS RW  5 Cengkareng  Bambu Larangan",
    "wilayah": "Jakarta Barat",
    "kecamatan": "Cengkareng",
    "kelurahan": "Cengkareng Barat",
    "jenis_tps": "Tipe 1",
    "alamat": "Jl  Bina Serasih III",
    "latitude": -6.130247,
    "longitude": 106.725349,
    "risk_status": "Normal"
  },
  {
    "name": "TPS RW  7",
    "wilayah": "Jakarta Barat",
    "kecamatan": "Cengkareng",
    "kelurahan": "Cengkareng Barat",
    "jenis_tps": "Tipe 4",
    "alamat": "Jl  Cendrawasih X No  8",
    "latitude": -6.144642,
    "longitude": 106.75304,
    "risk_status": "Normal"
  },
  {
    "name": "TPS RW  15",
    "wilayah": "Jakarta Barat",
    "kecamatan": "Cengkareng",
    "kelurahan": "Cengkareng Barat",
    "jenis_tps": "Tipe 3R",
    "alamat": "Jl  Taman Palem Lestari",
    "latitude": -6.1357,
    "longitude": 106.724686,
    "risk_status": "Normal"
  },
  {
    "name": "TPS RW  14",
    "wilayah": "Jakarta Barat",
    "kecamatan": "Cengkareng",
    "kelurahan": "Cengkareng Timur",
    "jenis_tps": "Tipe 3",
    "alamat": "Jl  Rawa Kedaung",
    "latitude": -6.118907,
    "longitude": 106.72364,
    "risk_status": "Normal"
  },
  {
    "name": "TPS RW  10",
    "wilayah": "Jakarta Barat",
    "kecamatan": "Cengkareng",
    "kelurahan": "Duri Kosambi",
    "jenis_tps": "Tipe 2",
    "alamat": "Jl  Mawar Utama RW  010",
    "latitude": -6.142197,
    "longitude": 106.736236,
    "risk_status": "Normal"
  },
  {
    "name": "TPS RW  9",
    "wilayah": "Jakarta Barat",
    "kecamatan": "Cengkareng",
    "kelurahan": "Duri Kosambi",
    "jenis_tps": "Tipe 1",
    "alamat": "Jl  Angsana RW  09",
    "latitude": -6.168934,
    "longitude": 106.779435,
    "risk_status": "Normal"
  },
  {
    "name": "TPS RW  2",
    "wilayah": "Jakarta Barat",
    "kecamatan": "Cengkareng",
    "kelurahan": "Duri Kosambi",
    "jenis_tps": "Tipe 4",
    "alamat": "Jl  Pondok Randu RW  02",
    "latitude": -6.18543394192,
    "longitude": 106.741483779,
    "risk_status": "Normal"
  },
  {
    "name": "TPS RW  1",
    "wilayah": "Jakarta Barat",
    "kecamatan": "Cengkareng",
    "kelurahan": "Rawa Buaya",
    "jenis_tps": "Tipe 4",
    "alamat": "Jl  Darma Wanita 1 RW  01",
    "latitude": -6.153247,
    "longitude": 106.82717,
    "risk_status": "Normal"
  },
  {
    "name": "TPS RW  10",
    "wilayah": "Jakarta Barat",
    "kecamatan": "Cengkareng",
    "kelurahan": "Rawa Buaya",
    "jenis_tps": "Tipe 2",
    "alamat": "Jl  Carina Sayang",
    "latitude": -6.142197,
    "longitude": 106.736236,
    "risk_status": "Normal"
  },
  {
    "name": "TPS RW  03",
    "wilayah": "Jakarta Barat",
    "kecamatan": "Grogol Petamburan",
    "kelurahan": "Tanjung Duren Utara",
    "jenis_tps": "Tipe 4",
    "alamat": "RT  09   RW  03 Tanjung Duren Utara",
    "latitude": -6.144109,
    "longitude": 106.810759,
    "risk_status": "Normal"
  },